[{"name":"1 Bishan Medical Clinic","address":"283 Bishan Street 22, Singapore 570283, Singapore","contact":"64561600","notes":"8am to 2pm, 6pm to 11pm Daily","coordinates":{"long":103.844634,"lat":1.358938}},{"name":"1 MEDICAL TECK GHEE","address":"410 Ang Mo Kio Avenue 10, Singapore 560410, Singapore","contact":"93552188","notes":"Mon-Sunday 7am-1pm\nMon-Sunday 6pm-11pm","coordinates":{"long":103.854714,"lat":1.362793}},{"name":"338 FAMILY CLINIC","address":"338 Ang Mo Kio Avenue 1, Singapore 560338, Singapore","contact":"64549408","notes":"Mon - Thurs: 10am - 1pm\nSat: 10am - 12pm","coordinates":{"long":103.848728,"lat":1.363897}},{"name":"57 MEDICAL CLINIC (GEYLANG BAHRU)","address":"57 Geylang Bahru, Singapore 330057, Singapore","contact":"66947078","notes":"Mon, Wed, Thur: 08.00am to 01.00pm, 06.00pm to 09.00pm Tue: 08.00am to 01.00pm\nSat: 08.00am to 01.00pm\nSun: 09.00am to 12.00pm","coordinates":{"long":103.869135,"lat":1.323347}},{"name":"57 Medical Clinic (Yishun)","address":"618 Yishun Ring Road, Singapore 760618, Singapore","contact":"62353490","notes":"Monday, Wednesday and Thursday : 06:00 pm to 09:00 pm Monday to Saturday : 08:00 am to 01:00 pm\nFriday : 06:00 pm to 09:00 pm\nSunday : 09:00 am to 12:00 pm","coordinates":{"long":103.835689,"lat":1.418771}},{"name":"81 Family Clinic","address":"86 Marine Parade Central, Singapore 440086, Singapore","contact":"63466768","notes":"9am-9pm","coordinates":{"long":103.906741,"lat":1.30173}},{"name":"888 PLAZA FAMILY CLINIC","address":"888 Woodlands Drive 50, Singapore 730888, Singapore","contact":"63688762","notes":"Kindly make appointment with clinic.\nWeekdays 2-4pm","coordinates":{"long":103.795309,"lat":1.437797}},{"name":"A HEALING HEART MEDICAL CLINIC","address":"134 Geylang East Avenue 1, Singapore 380134, Singapore","contact":"69621362","notes":"Mon to Fri:9am to 1230pm and 2pm to 6pm Sat: 9am to 1pm.\nSun and Public Holidays: Closed.","coordinates":{"long":103.886009,"lat":1.315991}},{"name":"A Jaga-Me Medical Clinic","address":"71 Ayer Rajah Crescent, 71 Ayer Rajah Crescent, Singapore, West 139951, Singapore","contact":"67173737","notes":"Mon – Fri: 8am to 5.30pm\nSat – Sun: 8am to 12.30pm","coordinates":{"long":103.787286,"lat":1.296743}},{"name":"A Life Clinic Pte Ltd","address":"Novena Medical Centre, 10 Sinaran Dr, Singapore, Central 307642, Singapore","contact":"67372283","notes":"Monday to Friday 9am to 12.30pm, 2pm to 4.30pm","coordinates":{"long":103.84413,"lat":1.320718}},{"name":"A MEDICAL CLINIC","address":"081001, Singapore, Central, Singapore","contact":"62262066","notes":"Monday to Thursday: 8am-2pm, 630pm-1030pm Friday: 8am-2pm\nSaturday: 8am - 2pm Sunday: 8am-2pm\nPublic Holidays: 8am-2pm","coordinates":{"long":103.839941,"lat":1.277402}},{"name":"ACACIA MEDICAL CLINIC","address":"01-07 Depot Road, Singapore 102105, Singapore","contact":"66840274","notes":"Mon - Sat: 12 - 1pm","coordinates":{"long":103.810812,"lat":1.281444}},{"name":"ACCORD MEDICAL CLINIC","address":"325 Ubi Avenue 1, Singapore 400325, Singapore","contact":"68441528","notes":"Mondays to Fridays: 8.30pm to 1pm, 2pm to 5.30pm\nSaturdays, Sundays and Public Holidays: 9am to 12.30pm","coordinates":{"long":103.903827,"lat":1.327705}},{"name":"ACMS MEDICAL CLINIC","address":"1 Grange Road, Singapore 239693, Singapore","contact":"62625052","notes":"Public Holiday :  Closed\nMonday to Saturday : 09:00 am to 12:30 pm, 02:00 pm to 04:30 pm","coordinates":{"long":103.837368,"lat":1.301459}},{"name":"ACUMED MEDICAL GROUP","address":"01-23 Joo Koon Circle, Singapore 629116, Singapore","contact":"68615755","notes":"Mon – Fri: 9.00am – 1.00pm\n2.00-6.00pm\nSat: 9.00am – 1.00pm","coordinates":{"long":103.678987,"lat":1.327868}},{"name":"ACUMED MEDICAL GROUP","address":"01-03 Tuas South Avenue 3, Singapore 637064, Singapore","contact":"65701390","notes":"Mon – Fri: 8.30am – 1.00pm","coordinates":{"long":103.622257,"lat":1.291746}},{"name":"ACUMED MEDICAL GROUP","address":"Block 215C Compassvale Drive, Block 215C Compassvale Drive, Singapore, North-East 543215, Singapore","contact":"63850113","notes":"Mon-Fri: 8.30am – 1.00pm 5.30pm – 8.30pm\nSat: 8.30am – 1.00pm","coordinates":{"long":103.89275,"lat":1.389694}},{"name":"ACUMED MEDICAL GROUP","address":"01-05 Tuas Avenue 1, Singapore 637321, Singapore","contact":"65639363","notes":"Mon-Fri:1.00am – 12.00noon\n2.00pm – 3.00pm","coordinates":{"long":103.644909,"lat":1.337005}},{"name":"ACUMED MEDICAL GROUP","address":"24 Raffles Place, Singapore 048621, Singapore","contact":"65327766","notes":"Mon – Fri: 8.30am – 1.00pm","coordinates":{"long":103.85213,"lat":1.283856}},{"name":"ACUMED MEDICAL GROUP","address":"Central, Singapore","contact":"67923822","notes":"Mon – Fri: 830am – 5.00pm\nSat: 8.30am – 1.00pm","coordinates":{"long":103.848198,"lat":1.332652}},{"name":"ACUMED MEDICAL GROUP","address":"38 Teban Gardens Road, Singapore 600038, Singapore","contact":"65619366","notes":"Mon – Fri: 8.30am  – 1.00pm, 2.00pm – 5.00pm, 6.00pm –\n9.00pm\nSat: 8.30am – 1.00pm, 2.00pm-4.00pm Sun/PH: 9.00am – 12.00noon","coordinates":{"long":103.742795,"lat":1.321148}},{"name":"ACUMED MEDICAL GROUP","address":"01-78 Woodlands Street 13, Singapore 730183, Singapore","contact":"63627789","notes":"Mon – Fri: 8.30am – 1.00pm 2.00pm – 5.00pm\nSat: 8.30am – 1.00pm","coordinates":{"long":103.776057,"lat":1.434444}},{"name":"ACUMED MEDICAL GROUP","address":"64 Yung Kuang Road, Singapore 610064, Singapore","contact":"62656422","notes":"Mon – Fri: 8.30am – 9.00pm Sat: 8.30am – 1.00pm\nSun/PH: 9.00am – 1.00pm","coordinates":{"long":103.722451,"lat":1.332374}},{"name":"ACUMED MEDICAL GROUP","address":"Tuas Amenity Centre, 71 Pioneer Road, Singapore, West 639591, Singapore","contact":"68615996","notes":"Mon – Fri: 8.30am – 5.00pm Sat: 8.30am – 1.00pm\nSun/PH: Closed","coordinates":{"long":103.652317,"lat":1.316864}},{"name":"ACUMED MEDICAL GROUP","address":"301 Boon Lay Way, Singapore 649846, Singapore","contact":"65159919","notes":"Mon – Fri: 8.30am – 1pm, 1.30pm – 5pm, 5.30pm – 9.00pm Sat: 6.00pm – 9pm\nSun / PH: 9.00am – 1.00pm","coordinates":{"long":103.706069,"lat":1.338603}},{"name":"ACUMED MEDICAL GROUP","address":"214 Bedok North Street 1, Singapore 460214, Singapore","contact":"64438077","notes":"Mon – Fri: 8.30am - 1pm, 2pm to 5 pm Sat: 8.30am – 1pm\nSun/PH: Closed","coordinates":{"long":103.9325,"lat":1.325882}},{"name":"ADMIRALTY FAMILY MEDICAL CLINIC","address":"693 Woodlands Avenue 6, Singapore 738991, Singapore","contact":"69048894","notes":"TUESDAY & THURSDAY 0830-1200hrs & 1400-1600hrs\nNot available on Eve of Public Holidays & Public Holidays","coordinates":{"long":103.802988,"lat":1.438787}},{"name":"ADVANTAGE MEDICAL CLINIC","address":"Singapore","contact":"64668090","notes":"9am-6pm on weekday.\n9am-1pm on Saturday.","coordinates":{"long":103.808052586332,"lat":1.3516161224392}},{"name":"AE MEDICAL CLINIC","address":"467b Fernvale Link, Singapore 792467, Singapore","contact":"68162900","notes":"Mon, Thurs, Fri: 6 to 10pm Tues: 8am to 12pm\nSun: 8.30am to 12.30pm","coordinates":{"long":103.87805,"lat":1.398114}},{"name":"Aesthetics Plus Medical Clinic","address":"57 Circular Road, Singapore 049412, Singapore","contact":"62211322","notes":"By appointment only","coordinates":{"long":103.849265,"lat":1.286033}},{"name":"Affinity Medical Clinic","address":"253 Serangoon Central Drive, Singapore 550255, Singapore","contact":"62808080","notes":"Mon- Fri(except wednesdays) 830-1pm ; 2-430pm; 6-930pm Wed, Sat, Sun: 830-1pm\nPublic Holidays closed","coordinates":{"long":103.871098,"lat":1.3546}},{"name":"AIA ALEXANDRA CLINIC","address":"01-03 Alexandra Road, Singapore 159012, Singapore","contact":"6563333636","notes":"Monday - Friday 8:30am - 1pm","coordinates":{"long":103.818722,"lat":1.291302}},{"name":"AIDAN MEDICAL CLINIC","address":"539 Bedok North Street 3, Singapore 460539, Singapore","contact":"69707820","notes":"Monday to Wednesday : 9am to 1pm, 2 to 5.30pm\nThursday to Saturday: 9am to 1pm","coordinates":{"long":103.925394,"lat":1.331404}},{"name":"ALEXANDRA FAMILY CLINIC & SURGERY","address":"57 Dawson Road, Singapore 142086, Singapore","contact":"64797022","notes":"MON - FRI: 11.30AM TO 2.30PM","coordinates":{"long":103.810804,"lat":1.295919}},{"name":"AMDA INTERNATIONAL PEACE CLINIC","address":"9 Taman Serasi, Singapore 257720, Singapore","contact":"66941661","notes":"Mon-Fri 9am-12.30pm 2-6.30pm Sat 9.30am-1pm\nSun: closed","coordinates":{"long":103.819136,"lat":1.308472}},{"name":"American International Clinic Pte Ltd","address":"Novena Medical Centre, 10 Sinaran Dr, Singapore, Central 307642, Singapore","contact":"63977129","notes":"Monday through Friday 9 am to 5 pm\nSaturday 9 am to 1 pm","coordinates":{"long":103.84413,"lat":1.320718}},{"name":"ANSARI FAMILY CLINIC & SURGERY","address":"78 Lorong 25a Geylang, Singapore 388259, Singapore","contact":"67430714","notes":"Weekdays: 9am-2pm, 4pm-7pm\nSaturday: 9am-1pm","coordinates":{"long":103.883338,"lat":1.315922}},{"name":"ANTEH DISPENSARY PTE LTD","address":"01-02 Lorong 22 Geylang, Singapore 399719, Singapore","contact":"67441809","notes":"Mon-Fri 9am-12, 2pm-5pm, 7pm-11pm;\nSat 9am-12pm, 1pm-6pm, 7pm-11pm; Sun & PH 1pm-6pm, 7pm-11pm","coordinates":{"long":103.882138,"lat":1.31043}},{"name":"APEX MEDICAL CENTRE (JURONG) PTE LTD","address":"960 Jurong West Street 92, Singapore 640960, Singapore","contact":"67912292","notes":"MON - FRI : 8AM - 9PM SAT : 8AM-12PM\nSUN : 8AM - 12PM\nPH : 8AM - 12PM","coordinates":{"long":103.691464,"lat":1.341401}},{"name":"Appletree Medical Centre","address":"416 Ang Mo Kio Avenue 10, Singapore 560416, Singapore","contact":"64548361","notes":"Weekdays: 9am-12pm, 2.30pm-4pm\nWeekends: 9am-12pm","coordinates":{"long":103.855091,"lat":1.364562}},{"name":"Arcadia Clinic","address":"2 Pandan Valley, Singapore 597626, Singapore","contact":"64695122","notes":"Mon to Fri 9am to 12.30 , 2pm to 3.30pm Sat 9am to 11am\nSun 9.30am to 11am","coordinates":{"long":103.778928,"lat":1.320352}},{"name":"ARIS MEDICAL CLINIC","address":"989 Bukit Timah Road, Singapore 589629, Singapore","contact":"64631197","notes":"Mon to Fri: 9:30AM - 12:30PM\n(by appointment only)","coordinates":{"long":103.784341,"lat":1.333619}},{"name":"ASIA FIRST MEDICAL CLINIC","address":"7 Tanjong Pagar Plaza, Singapore 081007, Singapore","contact":"69087096","notes":"Monday to Friday\n8.30 a.m. till 5.30 p.m.","coordinates":{"long":103.843201,"lat":1.277068}},{"name":"ASIA RETINA EYE SURGERY CENTRE","address":"290 Orchard Road, Singapore 238859, Singapore","contact":"67320007","notes":"Monday to Friday: 9 am to 5.30 pm Saturday: 9 am to 12.30 pm\nClosed on Public Holidays","coordinates":{"long":103.835923,"lat":1.304023}},{"name":"ASIAMEDIC WELLNESS ASSESSMENT CENTRE","address":"08-00 Orchard Road, Singapore 238876, Singapore","contact":"67898888","notes":"Clinic Operating Hours\n•Monday –Friday 8.30am – 5.30pm\n•Saturday 8.30am –12.30pm\n•Sunday & Public Holidays CLOSED","coordinates":{"long":103.827993,"lat":1.307074}},{"name":"ASSURANCE MEDICARE CLINIC AND SURGERY","address":"370 Tanjong Katong Road, Singapore 437127, Singapore","contact":"63457810","notes":"MON-FRI: 8.30AM TO 12.30PM; 2.00PM TO 3.30PM SAT: 8.30AM TO 11.30PM\nSUN/PH: CLOSED","coordinates":{"long":103.896729,"lat":1.302888}},{"name":"ATA Medical","address":"01-02 Anson Road, Singapore 079911, Singapore","contact":"62230682","notes":"Monday- Friday : 0830 AM - 1730 PM\nSaturday : 0830AM - 1230 PM","coordinates":{"long":103.844722,"lat":1.273736}},{"name":"Atlas Pacific Medical","address":"428 River Valley Road, Singapore 248327, Singapore","contact":"63869098","notes":"Monday: 8:30am to 8pm\nTuesday: 8:30am to 2pm, 5pm to 8pm Wednesday:  8:30am to 2pm, 5pm to 8pm Thursday:  8:30am to 2pm, 5pm to 8pm Friday:  8:30am to 2pm, 5pm to 8pm Saturday: Closed\nSunday: 5pm to 8pm.","coordinates":{"long":103.827621,"lat":1.294461}},{"name":"ATRIO FAMILY CLINIC","address":"291 Yishun Street 22, Singapore 760291, Singapore","contact":"67520838","notes":"Mondays to Fridays:  8am-2pm, 5.30pm-9.30pm\nSaturdays: 8am-2pm, 5.30pm-9.30pm Sundays: 9am-2pm, 5.30pm-9.30pm\nClosed on Public Holidays","coordinates":{"long":103.836688,"lat":1.436149}},{"name":"ATRIO FAMILY CLINIC (AMK) PTE. LTD.","address":"532 Ang Mo Kio Avenue 10, Singapore 560532, Singapore","contact":"64554282","notes":"Monday to Friday : 08:00 am to 02:00 pm\nTuesday to Wednesday : 08:00 am to 02:00 pm, 05:30 pm to 09:30 pm\nFriday : 08:00 am to 02:00 pm, 05:30 pm to 09:30 pm Saturday : 08:00 am to 02:00 pm\nSunday : 09:00 am to 02:00 pm","coordinates":{"long":103.854635,"lat":1.373792}},{"name":"Babysteps Medical","address":"25 Ghim Moh Link, Singapore 270025, Singapore","contact":"88391322","notes":"Mon - Sunday 10 AM - 8 PM (By appointment only, please call\nclinic to arrange)","coordinates":{"long":103.786467,"lat":1.308156}},{"name":"BANYAN CLINIC @ JW","address":"502 Jurong West Avenue 1, Singapore 640502, Singapore","contact":"68991161","notes":"Mon-Sat 8.30am-2.30pm, 6pm-10.30pm Sun 8.30am-1.30pm\nPH Closed","coordinates":{"long":103.718189,"lat":1.350389}},{"name":"BANYAN CLINIC @ JW","address":"502 Jurong West Avenue 1, Singapore 640502, Singapore","contact":"68991161","notes":"Mon-Sat 8.30am-2.30pm, 6pm-10.30pm Sun 8.30am-1.30pm\nPH Closed","coordinates":{"long":103.718189,"lat":1.350389}},{"name":"BEDOK  CENTRAL CLINIC","address":"214 Bedok North Street 1, Singapore 460214, Singapore","contact":"62424489","notes":"Mon-Sat: 09.00am-11.00am","coordinates":{"long":103.9325,"lat":1.325882}},{"name":"BEDOK DAY & NIGHT CLINIC","address":"418 Bedok North Avenue 2, Singapore 460418, Singapore","contact":"64441104","notes":"0900-1530, 1830-2100 hrs on Mon-Fri\n0930-1230 hrs on Sat, Sun, PHs","coordinates":{"long":103.930039,"lat":1.328566}},{"name":"BELIEF FAMILY CLINIC","address":"541 Kallang Bahru, Singapore 339700, Singapore","contact":"65924667","notes":"Monday to Friday 12 to 8pm\nSaturday 9 to 1pm Sunday/PH Closed","coordinates":{"long":103.873624,"lat":1.322054}},{"name":"BEST MED FAMILY CLINIC AND HOME CARE","address":"633A Multi-Storey Car Park, 633A Woodlands Ring Rd., Singapore, North 730633, Singapore","contact":"65184268","notes":"MON-FRI 8:30-12:30, 2:30-4:30, 6-9\nSAT 9-1\nSUN 6-9","coordinates":{"long":103.802492,"lat":1.435926}},{"name":"BETHESDA MEDICAL CENTRE","address":"3 Temasek Boulevard, Singapore 038986, Singapore","contact":"63378933","notes":"Mon - Fri: 08.30am to 1pm; 2:00pm to 5:00pm\nSat: 9.00am to 12:00noon","coordinates":{"long":103.859633,"lat":1.29468}},{"name":"BINJAI MEDICAL & PAINCARE CLINIC","address":"23 Binjai Park, Singapore 589828, Singapore","contact":"64693737","notes":"Monday to Friday: 9am-1pm, 2pm-4pm, 6pm-9pm Saturday: 9am-1pm\nSunday and public holidays closed","coordinates":{"long":103.786936,"lat":1.336436}},{"name":"BISHAN GRACE CLINIC","address":"150 Bishan Street 11, Singapore 570150, Singapore","contact":"62542232","notes":"Mon to Wed 0830-1400\nThurs to Fri: 0830 - 1200","coordinates":{"long":103.855214,"lat":1.344684}},{"name":"BL MEDICAL ASSOCIATES","address":"2 Science Park Drive, Singapore 118222, Singapore","contact":"62651052","notes":"mon to fri 0900 to 1300, 1400 to 1630\nsaturday 0900 to 1200\nsunday and public holidays  - closed","coordinates":{"long":103.784648,"lat":1.291048}},{"name":"BLESS MEDICAL CENTRE PTE LTD","address":"Singapore","contact":"62664119","notes":"MONDAY TO FRIDAY 8AM TO 4.00 PM\nSATURDAY  8AM TO 11AM","coordinates":{"long":103.808052586332,"lat":1.3516161224392}},{"name":"BLISS MEDICAL CLINIC","address":"65 Telok Blangah Drive, Singapore 100065, Singapore","contact":"69299026","notes":"Mon-Fri: 8am to 5pm\nSat: 8am to 1pm Sun/PH closed","coordinates":{"long":103.810422,"lat":1.274069}},{"name":"Blisscare Medical","address":"Novena Medical Centre, 10 Sinaran Dr, Singapore, Central 307642, Singapore","contact":"62598662","notes":"Monday to Friday 9am to 6pm  Saturday 9am to 1pm","coordinates":{"long":103.84413,"lat":1.320718}},{"name":"BOON KENG CLINIC & SURGERY","address":"11 Upper Boon Keng Road, Singapore 380011, Singapore","contact":"67465456","notes":"Monday- Thursday 0900hr-1230hr, 1400hr- 1600hr, 1730hr-\n2030hr. Friday 0900hr-1230hr, 1400hr-1600hr. Sat0900hr- 1230hr","coordinates":{"long":103.870917,"lat":1.314258}},{"name":"BOSTON MEDICAL","address":"119 Aljunied Avenue 2, Singapore 380119, Singapore","contact":"68179036","notes":"Monday-Friday 9am-2pm Monday-Friday 6pm-8.30pm Saturday & Sunday 9am-12.30pm\nClosed on Public Holiday","coordinates":{"long":103.886418,"lat":1.319782}},{"name":"BRADDELL MEDICAL CLINIC","address":"124 Lorong 1 Toa Payoh, Singapore 310124, Singapore","contact":"88142803","notes":"Mon-Sun: 08.00am to 01.00pm & 06.00pm to 11.00pm","coordinates":{"long":103.844628,"lat":1.338669}},{"name":"BUKIT TIMAH CLINIC","address":"621a Bukit Timah Road, Singapore 269731, Singapore","contact":"64665458","notes":"Mon to Fri: 8:30AM - 12PM, 2PM - 4:30PM\nSat: 8.30AM-12PM","coordinates":{"long":103.809059,"lat":1.324575}},{"name":"C K TAN FAMILY CLINIC & SURGERY PTE\nLTD","address":"Blk 157, Singapore, Central 310500, Singapore","contact":"62514438","notes":"MON TO FRIDAYS  8:30am to 11:30 AM, 2:00PM TO 3:30pm\nSAT : 8:30 am to 11:30AM","coordinates":{"long":103.846711,"lat":1.332823}},{"name":"C3 Family Clinic @Aljunied Crescent","address":"Aljunied Crescent Playground, Blk 95 Aljunied Crescent, Singapore, Central 380095, Singapore","contact":"67422285","notes":"Mon, Thu: 07.30am to 02.30pm Tue, Wed, Fri: 07.30am to 12.30pm Sat, Sun: 07.30am to 10.30am\nPH: Closed\nPlease contact clinic to arrange appointment for pediatric swab","coordinates":{"long":103.8861,"lat":1.321905}},{"name":"Calrose Medical Family Clinic","address":"Sumang Lane, Singapore 821229, Singapore","contact":"69571750","notes":"Mon-Fri: 08:30 - 13:00, 18:00 - 21:30\nSat: 08:30 - 13:00\nSun: 18:00 - 21:30","coordinates":{"long":103.8922201,"lat":1.4025422}},{"name":"CAMRY MEDICAL CENTRE","address":"Blk 95 Toa Payoh Lor 4, Singapore, Central 310104, Singapore","contact":"62580553","notes":"Swabbing hours: Mon – Fri 8.30 -12pm , 1pm -2pm","coordinates":{"long":103.849091,"lat":1.339682}},{"name":"CAMTECH LABORATORY","address":"Henderson, Kentucky, United States","contact":"62766488","notes":"9am - 6pm","coordinates":{"long":-87.5908,"lat":37.8368}},{"name":"CANBERRA CARE MEDICAL CLINIC","address":"633A Multi-Storey Car Park, 633A Woodlands Ring Rd., Singapore, North 730633, Singapore","contact":"64831128","notes":"Public Holiday : Closed\nMonday : 08:30 am to 01:00 pm, 02:00 pm to 04:00 pm, 06:30 pm to 09:00 pm\nTuesday and Thursday : 08:30 am to 01:00 pm, 02:00 pm to 04:00 pm, 06:30 pm to 09:00 pm\nWednesday and Friday : 08:30 am to 01:00 pm, 02:00 pm to 04:00 pm\nSaturday : 08:30 am to 01:00 pm\nSunday: 1st and 3rd Sun of the month: 2-6pm","coordinates":{"long":103.802492,"lat":1.435926}},{"name":"CARE FAMILY CLINIC","address":"663 Buffalo Road, Singapore 210663, Singapore","contact":"62995868","notes":"Mon to Fri : 8.30am - 12.30pm\n1.30pm - 4pm Mon and Wed : 6pm - 9pm Sat : 8.30am - 12.30pm\nSun : 1pm - 6pm","coordinates":{"long":103.850851,"lat":1.305625}},{"name":"CareDoc Medical Clinic","address":"01-907 Ang Mo Kio Avenue 1, Singapore 569979, Singapore","contact":"65184771","notes":"Monday to Friday 8.30am-1pm, 2pm-5pm, 6pm-9pm\nSaturday 8.30am- 1pm","coordinates":{"long":103.858581,"lat":1.355162}},{"name":"CARITAS CLINIC","address":"304 Ubi Avenue 1, Singapore 400304, Singapore","contact":"67489284","notes":"Mon, Tues, Wed: 9-12noon, 2-4pm\nSunday: 9.30-12noon.","coordinates":{"long":103.901411,"lat":1.329652}},{"name":"CCK family clinic","address":"304 Choa Chu Kang Avenue 4, Singapore 680304, Singapore","contact":"68910338","notes":"Mon to Friday swab timing at 12 noon","coordinates":{"long":103.743147,"lat":1.384494}},{"name":"CENTRAL 24-HR CLINIC (BEDOK)","address":"Multi-Storey Car Park, 26 Jalan Membina, Singapore, Central 162118, Singapore","contact":"62476122","notes":"Mon - Fri: 09.00am to 03.00pm\nSat - Sun : 09.00am to 11am","coordinates":{"long":103.826078,"lat":1.281931}},{"name":"CENTRAL 24-HR CLINIC (CLEMENTI)","address":"450 Clementi Avenue 3, Singapore 120450, Singapore","contact":"67732925","notes":"Mon - Fri: 09.00am to 03.00pm\nSat - Sun : 09.00am to 11am","coordinates":{"long":103.765476,"lat":1.313539}},{"name":"CENTRAL 24-HR CLINIC (HOUGANG)","address":"681 Hougang Avenue 8, Singapore 530681, Singapore","contact":"63876965","notes":"Mon - Fri: 09.00am to 03.00pm\nSat - Sun : 09.00am to 11am","coordinates":{"long":103.88568,"lat":1.372996}},{"name":"CENTRAL 24HR CLINIC (JURONG WEST)","address":"Blk 492 Jurong West Street 41, 492 Jurong West St. 41, Singapore, West 640492, Singapore","contact":"65657484","notes":"Mon - Fri: 09.00am to 03.00pm\nSat - Sun : 09.00am to 11am","coordinates":{"long":103.725004,"lat":1.3499124999999998}},{"name":"CENTRAL 24-HR CLINIC (MARSILING)","address":"303 Woodlands Street 31, Singapore 730303, Singapore","contact":"63652908","notes":"Mon - Fri: 09.00am to 03.00pm\nSat - Sun : 09.00am to 11am","coordinates":{"long":103.773883,"lat":1.43099}},{"name":"CENTRAL 24-HR CLINIC (PASIR RIS)","address":"446 Pasir Ris Drive 6, Singapore 510446, Singapore","contact":"65822640","notes":"Mon - Fri: 09.00am to 03.00pm\nSat - Sun : 09.00am to 11am","coordinates":{"long":103.957651,"lat":1.370394}},{"name":"CENTRAL 24-HR CLINIC (PIONEER\nNORTH)","address":"959 Jurong West Street 92, Singapore 640959, Singapore","contact":"62512775","notes":"Mon - Fri: 09.00am to 03.00pm\nSat - Sun : 09.00am to 11am","coordinates":{"long":103.690722,"lat":1.341481}},{"name":"CENTRAL 24-HR CLINIC (TAMPINES)","address":"201d Tampines Street 21, Singapore 524201, Singapore","contact":"69687001","notes":"Mon - Fri: 09.00am to 03.00pm\nSat - Sun : 09.00am to 11am","coordinates":{"long":103.953339,"lat":1.352275}},{"name":"CENTRAL 24-HR CLINIC (YISHUN)","address":"01-04 Yishun Avenue 5, Singapore 763701, Singapore","contact":"67597985","notes":"Mon - Fri: 09.00am to 03.00pm\nSat - Sun : 09.00am to 11am","coordinates":{"long":103.826914,"lat":1.430225}},{"name":"CENTRE FOR KIDNEY DISEASES","address":"304 Orchard Road, Singapore 238863, Singapore","contact":"67364691","notes":"0830 HRS TO 1700 HRS (MONDAY TO FRIDAY)\n0830 HRS TO 1300 HRS (SATURDAY/SUNDAY/PUBLIC HOLIDAYS)","coordinates":{"long":103.833962,"lat":1.304506}},{"name":"CHAN FAMILY CLINIC","address":"Katong Shopping Centre, 865 Mountbatten Rd, Singapore, Central 437844, Singapore","contact":"63454683","notes":"Monday to Friday : 09:00 am to 03:30 pm\nSaturday : 09:00 am to 12:30 pm","coordinates":{"long":103.900988,"lat":1.30372}},{"name":"CHANG CLINIC & SURGERY","address":"080007, Singapore, Central, Singapore","contact":"62216955","notes":"Monday, Wednesday, Friday 9am-12pm, 2pm-4pm\nTuesday and Thursday 9am-12pm, 2pm-4pm, 6pm - 8pm Saturday 9am - 1pm","coordinates":{"long":103.83904,"lat":1.276975}},{"name":"Changi Clinic","address":"848 Sims Avenue, Singapore 400848, Singapore","contact":"67428865","notes":"Mondays to Fridays, 830 to 1230, 1400 to 1700.\nSaturdays 0800 to 1200. Closed Sunday and Public Holidays","coordinates":{"long":103.901378,"lat":1.31734}},{"name":"Chest and Internal medicine Clinic","address":"Mount Elizabeth Novena Specialist Center, Mount Elizabeth Novena Hospital, Singapore, Central 329563, Singapore","contact":"66944333","notes":"Monday to friday 9 am -5 pm, saturday 9 am -1 pm","coordinates":{"long":103.844067,"lat":1.322111}},{"name":"CHIA CLINIC AND SURGERY","address":"01-04 Foch Road, Singapore 338750, Singapore","contact":"62980959","notes":"MONDAY TO FRIDAY: 9AM TO 12.30PM, 2PM TO 5PM\nSATURDAY: 9AM TO 12.30PM","coordinates":{"long":103.860765,"lat":1.313161}},{"name":"CHIN CHOO CLINIC","address":"35 Circuit Road, Singapore 370035, Singapore","contact":"67452815","notes":"Mon - Fri: 09.00am to 11:45am, 2:00pm to 3:45pm, 6:00pm to 8:45PM.\nSat: 09:00am to 11:45am","coordinates":{"long":103.886,"lat":1.329166}},{"name":"Chinatown Wellness Clinic","address":"02-02 Upper Cross Street, Singapore 058362, Singapore","contact":"62267188","notes":"Mon, Tues, Thur, Fri: 830am to 1pm, 2pm to 5pm Wed: 830am to 1 pm\nSat: 9am to 1 pm\nSun & Public holidays: Closed","coordinates":{"long":103.844654,"lat":1.284514}},{"name":"CHIRON MEDICAL CLINIC","address":"St. George's, St. George's, Bermuda","contact":"62914963","notes":"Monday to Saturday 9am to 12pm\nMonday to Wednesday & Friday 2pm to 3.30pm","coordinates":{"long":-64.67787,"lat":32.384818}},{"name":"CHNG CLINIC AND SURGERY","address":"178 Toa Payoh Central, Singapore 310178, Singapore","contact":"62504522","notes":"Mon to Fri 8.30am to 12.30pm, 2pm to 4pm Sat and Sun 9am to 12pm\nPH Closed","coordinates":{"long":103.849265,"lat":1.33358}},{"name":"Chua & Partners Family Clinic","address":"18 Jalan Membina, Singapore 164018, Singapore","contact":"62719004","notes":"9am -2pm, 6pm-9pm Mon-Friday 9am-1pm Sat\nClosed on Sunday and PH","coordinates":{"long":103.826814,"lat":1.285608}},{"name":"CHUA MEDICAL CENTRE PTE LTD","address":"Blk 248 @ Simei Street 3, Blk 248, Simei Street 3, Singapore, South East 520120, Singapore","contact":"67853825","notes":"Mon-Fri: 9 am to 12.30pm, 2.30 to 6pm (Wed afternoon closed)\nSun:9 am to 3pm","coordinates":{"long":103.953529,"lat":1.345108}},{"name":"CHUA MEDICAL CLINIC AND SURGERY PTE. LTD.","address":"642 Bukit Batok Central, Singapore 650642, Singapore","contact":"69726948","notes":"Mon, Wed, Fri: 8.30am - 4:30pm Tue, Thu: 4pm - 4:30pm\nSat: 8.30am - 12.30pm","coordinates":{"long":103.751707,"lat":1.349007}},{"name":"CHUAH CLINIC & SURGERY PTE LTD","address":"Blk 113 Aljunied Ave 2, Blk 113 Aljunied Ave 2, Singapore, Central 380119, Singapore","contact":"67452104","notes":"Monday to Sunday 8.30am to 4pm","coordinates":{"long":103.886451,"lat":1.320224}},{"name":"CHUNG & EE MEDICAL CLINIC","address":"10 Telok Blangah Crescent, Singapore 090010, Singapore","contact":"69963782","notes":"Mon/Tue/Thu/Fri: 09.00am to 04.00pm Wed/Sat: 09.00am to 12.00pm\nSun/PH: Closed","coordinates":{"long":103.819766,"lat":1.277735}},{"name":"CityGP Family Clinic","address":"122 Bedok North Street 2, Singapore 460122, Singapore","contact":"62414702","notes":"Open daily 9:30am to 7:30pm except Wednesday’s and Friday’s (Wednesday’s and Friday’s open during public holidays)","coordinates":{"long":103.937896,"lat":1.328935}},{"name":"CityHealth Clinic & Surgery","address":"Singapore","contact":"62995398","notes":"MON-FRI 0900-1200;1400-1600","coordinates":{"long":103.808052586332,"lat":1.3516161224392}},{"name":"Clari Health CBD Travel Clinic","address":"Singapore","contact":"63138209","notes":"Wednesday - 12nn to 6pm\nSaturday - 10am to 3pm","coordinates":{"long":103.808052586332,"lat":1.3516161224392}},{"name":"Clarion Medical","address":"202 Ang Mo Kio Avenue 3, Singapore 560202, Singapore","contact":"63530818","notes":"Mon-Fri - 0830 - 2030\nSat - 0830 - 1800\nSun/PH - 0830 - 1230\nLunch 1400 - 1530","coordinates":{"long":103.844516,"lat":1.368458}},{"name":"CLIFFORD DISPENSARY PTE LTD","address":"50 Airport Boulevard, Singapore 819658, Singapore","contact":"65460923","notes":"8.30am to 1pm, 2pm to 5pm Mondays to Fridays. 8.30am to\n1pm Saturdays. Closed on Sundays and Public Holidays","coordinates":{"long":103.986101,"lat":1.348373}},{"name":"CLIFFORD DISPENSARY PTE LTD","address":"350 Orchard Road, Singapore 238868, Singapore","contact":"67374341","notes":"Mondays to Fridays 9am to 1pm, 2pm to 5pm Saturdays 9am to 1pm\n(By appointment only)","coordinates":{"long":103.831511,"lat":1.305801}},{"name":"CLINIC@COSTA","address":"84 Bayshore Road, Singapore 469994, Singapore","contact":"62433638","notes":"Monday to Tuesday : 08:30 am to 02:30 pm, 06:30 pm to 09:00 pm\nWednesday : 08:30 am to 02:30 pm\nThursday : 08:30 am to 02:30 pm, 06:30 pm to 09:00 pm Friday : 08:30 am to 02:30 pm\nSaturday : 08:30 am to 01:00 pm\nSunday :  Closed","coordinates":{"long":103.940117,"lat":1.312188}},{"name":"CLOVER MEDICAL CLINIC PTE LTD","address":"21 Choa Chu Kang North 6, Singapore 689578, Singapore","contact":"65094480","notes":"Monday - Thursday : 0830 - 1600hours\nFriday - Saturday : 0900 - 1200hours","coordinates":{"long":103.746636,"lat":1.397066}},{"name":"COMFORT CLINIC & SURGERY","address":"214 Serangoon Avenue 4, Singapore 550214, Singapore","contact":"62807271","notes":"Mon to Fri : 9.00 am to 12.00 pm  2.00 pm to 3.30 pm Sat, Sun    : 9.00 am to 12.00 pm\nPH             : Closed","coordinates":{"long":103.873634,"lat":1.357327}},{"name":"Compassvale 297A Medical Clinic","address":"297a Compassvale Street, Singapore 541297, Singapore","contact":"65473592","notes":"Monday to Friday 0830 - 1230, 1400 -1630, 1900 - 2100\nSaturday 0830 - 1230\nSunday  0900 - 1200","coordinates":{"long":103.9006,"lat":1.395048}},{"name":"Complete Healthcare International","address":"10-00 Orchard Road, Singapore 238876, Singapore","contact":"67762288","notes":"Monday to Friday :   8.30am to 12.30pm, 2.00pm to 5.00pm Saturday : 8.30am to 12.00pm\nSunday and public holiday : Close","coordinates":{"long":103.827941,"lat":1.307099}},{"name":"CORNERSTONE MEDICAL","address":"29a Ghim Moh Link, Singapore 271029, Singapore","contact":"62620018","notes":"Mon-Fri: 9am to 3pm Sat: 9am to 1pm\nPH: Closed","coordinates":{"long":103.784598,"lat":1.308493}},{"name":"CORNERSTONE MEDICAL BIDADARI","address":"Bidadari Park Drive, Singapore 363202, Singapore","contact":"67075660","notes":"Mon-Fri: 9am to 3pm Sat: 9am to 1pm\nSun and PH: Closed","coordinates":{"long":103.8727788,"lat":1.339493}},{"name":"CORONATION MEDICAL CENTRE","address":"02-01 Bukit Timah Road, Singapore 228554, Singapore","contact":"64686768","notes":"Monday to Friday: 9am to 12:30pm, 2pm to 5 pm\nSaturday and Sunday: 9:30am to 12pm","coordinates":{"long":103.84147,"lat":1.311861}},{"name":"CRAWFURD MEDICAL","address":"3 Temasek Boulevard, Singapore 038986, Singapore","contact":"68049580","notes":"Mondays to Fridays - 8.30am to 12.00nn & 2.00pm to 4.00pm Saturdays - 8.30am to 11.00am\nClosed on Sundays and Public Holidays.","coordinates":{"long":103.859633,"lat":1.29468}},{"name":"CROSSROADS FAMILY CLINIC","address":"01-10 Tampines Avenue 9, Singapore 529565, Singapore","contact":"65927080","notes":"Mon - Sat: 8am to 12.30pm\nMon, Tues, Wed & Fri : 2 - 4pm Mon, Wed, Sun : 5.30 - 8.30pm","coordinates":{"long":103.948805,"lat":1.359977}},{"name":"CURIE ONCOLOGY","address":"Mount Elizabeth Novena Specialist Center, Mount Elizabeth Novena Hospital, Singapore, Central 329563, Singapore","contact":"65928615","notes":"Monday to Friday: 8:30am – 5:30pm","coordinates":{"long":103.844067,"lat":1.322111}},{"name":"DA CLINIC @ ANCHORVALE","address":"351 Anchorvale Road, Singapore 544336, Singapore","contact":"62417460","notes":"Public Holiday : 09:00 am to 12:00 pm, 06:00 pm to 09:00 pm Monday to Friday : 09:00 am to 09:00 pm\nSaturday to Sunday : 09:00 am to 12:00 pm, 06:00 pm to 09:00 pm","coordinates":{"long":103.887804,"lat":1.397433}},{"name":"DA CLINIC @ ANSON","address":"Singapore","contact":"69541012","notes":"Mon-Fri: 9am to 7pm","coordinates":{"long":103.808052586332,"lat":1.3516161224392}},{"name":"DA CLINIC @ BISHAN","address":"501 Bishan Street 11, Singapore 570501, Singapore","contact":"62623759","notes":"Monday to Friday : 09:00 am to 09:00 pm\nSaturday to Sunday : 09:00 am to 12:00 pm, 06:00 pm to 09:00 pm","coordinates":{"long":103.84908,"lat":1.348417}},{"name":"DA CLINIC @ BUKIT BATOK","address":"01-02 Bukit Batok West Avenue 6, Singapore 650101, Singapore","contact":"62599531","notes":"Public Holiday : 09:00 am to 12:00 pm, 06:00 pm to 09:00 pm\nSaturday to Sunday : 09:00 am to 12:00 pm, 06:00 pm to 09:00 pm","coordinates":{"long":103.746756,"lat":1.346154}},{"name":"DA CLINIC @ POTONG PASIR","address":"51 Upper Serangoon Road, Singapore 357768, Singapore","contact":"69540513","notes":"Public Holiday : 09:00 am to 09:00 pm\nMonday to Sunday : 09:00 am to 09:00 pm","coordinates":{"long":103.868541,"lat":1.32918}},{"name":"DA CLINIC @ TAMAN JURONG","address":"140 Corporation Drive, Singapore 610359, Singapore","contact":"69541012","notes":"Mon: 9AM - 9PM, 6PM - 8:45PM, no physical doctors from 4PM - 6PM\nTue: 9AM - 4PM Wed: 9AM - 6:45PM Thu: 9AM - 4PM\nFri: 9AM - 5:45PM","coordinates":{"long":103.721691,"lat":1.336581}},{"name":"DAYSPRING MEDICAL CLINIC (TAMPINES)","address":"2 Tampines Central 5, Singapore 529509, Singapore","contact":"67890123","notes":"monday to friday 9am to 1pm, 2pm to 5pm - appointment not required\n,6pm to 9 pm evening - by appointments only\nsaturday 9am to 1pm-  appointment not required","coordinates":{"long":103.943794,"lat":1.352362}},{"name":"Dedicare Medical Practice & Surgery @ Hougang","address":"419 Hougang Avenue 8, Singapore 530419, Singapore","contact":"69803066","notes":"Mon : 8am-1pm; 2pm-8pm Tue : 2pm-8pm\nWed : 2pm-8pm\nThu : 8am-1pm; 2pm-8pm Fri : 8am-1pm; 2pm-8pm Sat : 2pm-5pm\nSun : 8am-1pm","coordinates":{"long":103.894836,"lat":1.376102}},{"name":"DOCTORS CLINIC & SURGERY","address":"305 Woodlands Street 31, Singapore 738580, Singapore","contact":"62691017","notes":"Monday to Friday: 8.30 am to 12 noon, 2pm to 4.30pm, 6.30pm to 9pm\nSaturday: 8.30 am to 12 noon.\nSunday: 8.30am to 12 noon.","coordinates":{"long":103.775394,"lat":1.429265}},{"name":"DOCTORS EXPRESS MEDICAL CLINIC PTE\nLTD","address":"01-17 Raffles Place, Singapore 048618, Singapore","contact":"60110029","notes":"Mon-Fri: 8.30am-5.30pm","coordinates":{"long":103.851687,"lat":1.284383}},{"name":"DOCTORS FOR LIFE MEDICAL","address":"3 Pickering Street, Singapore 048660, Singapore","contact":"69090527","notes":"Public Holiday : 08:30 am to 05:00 pm, 05:00 pm to 06:00 pm Monday to Friday : 08:30 am to 05:00 pm\nSaturday : 09:00 am to 01:00 pm","coordinates":{"long":103.847435,"lat":1.284432}},{"name":"DOCTORS INC MEDICAL GROUP","address":"178 Toa Payoh Central, Singapore 310178, Singapore","contact":"63563633","notes":"9am-5pm, 6pm-8pm Mon-Fri 9am-1pm, 5pm-8pm Sat\n5pm-8pm Sun","coordinates":{"long":103.849265,"lat":1.33358}},{"name":"DOCTORS KOO, LOH & ASSOCIATES (PTE)\nLTD","address":"152 Yung Ho Road, Singapore 610152, Singapore","contact":"62665939","notes":"Monday to Friday 9.00am to 12.00pm & 2.00pm to 4.00pm","coordinates":{"long":103.720477,"lat":1.327409}},{"name":"DOVER MEDICAL CENTRE","address":"1 Fusionopolis Way, Singapore 138633, Singapore","contact":"67756266","notes":"Mon - Fri : 8.30 am to 12.30 pm, 01.30pm to 05.45pm Sat to Sun  : Closed\nPH : Closed","coordinates":{"long":103.787509,"lat":1.299031}},{"name":"DR CHAN PENG MUN CLINIC & SURGERY","address":"5 Koek Road, Singapore 228796, Singapore","contact":"67336060","notes":"MON - FRI : 9AM-530PM\nSAT : 9AM -1PM SUN/PH : CLOSED","coordinates":{"long":103.840726,"lat":1.301983}},{"name":"DR PANDA MEDICAL CENTRE","address":"20 Sin Ming Lane, Singapore 573968, Singapore","contact":"69807757","notes":"Monday, Wednesday, Friday: 8:30am-1pm, 2pm-9pm Tuesday, Thursday: 8.30am-1pm, 2pm-6pm  Saturday: 8.30am-12.30pm\nSunday: 8.30am-12.30pm, 6pm-9pm\nClosed on PH","coordinates":{"long":103.833356,"lat":1.358095}},{"name":"DR SOH FAMILY CLINIC","address":"966 Jurong West Street 93, Singapore 640966, Singapore","contact":"67917735","notes":"monday 9am to 5 pm tuesday 9am to 5 pm wed 9am to 5pm thurday 9am to 1 pm\nfriday 9am to 5 pm","coordinates":{"long":103.692925,"lat":1.341728}},{"name":"DR STANLEY PECK FAMILY CLINIC","address":"01-06 Bukit Batok Central, Singapore 659958, Singapore","contact":"69177889","notes":"Mondays to Thursdays 8am to 1 pm and 6 pm to 9 pm, Fridays 8\nam to 1 pm and Saturdays 8 am to 12 noon. Closed on Sundays and Public Holidays","coordinates":{"long":103.749411,"lat":1.348125}},{"name":"DR W.K. KOO & ASSOCIATES P.L.","address":"1 Jurong West Central 2, Singapore 648886, Singapore","contact":"67922669","notes":"Monday To Friday 9.00am to 12.00pm & 2.00pm to 4.00pm","coordinates":{"long":103.706503,"lat":1.339394}},{"name":"DR.W FAMILY CLINIC","address":"8 Empress Road, Singapore 260008, Singapore","contact":"64754262","notes":"Mon to Wed 8am-12pm; 2-5pm\nThurs to Sat 8am-12pm","coordinates":{"long":103.805309,"lat":1.316327}},{"name":"DR+ MEDICAL PAINCARE CLINIC","address":"988 Upper Serangoon Road, Singapore 544897, Singapore","contact":"69086570","notes":"8.30AM - 230PM, 6PM-10PM ON WEEKDAYS\n8.30AM - 1230PM ON WEEKENDS\nCLOSED ON PUBLIC HOLIDAY","coordinates":{"long":103.885008,"lat":1.360185}},{"name":"Drs Bain & Partners","address":"One Raffles Quay, 1 Raffles Quay, Singapore, Central 048583, Singapore","contact":"65325522","notes":"Public Holiday :  Closed\nMonday to Friday : 08:30 am to 01:00 pm, 02:00 pm to 05:00 pm\nSaturday : 08:30 am to 01:00 pm\nSunday :  Closed","coordinates":{"long":103.85189887499999,"lat":1.2815561249999998}},{"name":"DRS CHAN & TANG FAMILY CLINIC","address":"125 Lorong 1 Toa Payoh, Singapore 310125, Singapore","contact":"62511782","notes":"Mon - Fri - 8:30am  - 12:15pm, 2pm - 4:45pm Mon and Wed - 7pm - 8:45pm\nSat and Sun - 8:30am - 12:15pm\nPH - Closed","coordinates":{"long":103.845674,"lat":1.338257}},{"name":"DRS KOO & NEOH MEDICAL GROUP","address":"01-01 Woodlands Avenue 7, Singapore 737914, Singapore","contact":"63677077","notes":"Mon-Fri: 8.30am to 1pm; 2pm tp 5.30pm; 6pm to 8.30pm\nSat & Sun: 8.30am to 12pm; 2.30pm to 5pm; 6pm to 8pm PH: 9am to 11.30am","coordinates":{"long":103.811238,"lat":1.447251}},{"name":"DRS KOO & NEOH MEDICAL GROUP","address":"61 Choa Chu Kang Drive, Singapore 689715, Singapore","contact":"63677066","notes":"Mon-Fri: 9am to 11.30am; 2pm to 4pm; 6.30pm to 8pm Sat: 9am to 11.30am\nClosed on Sun & PH","coordinates":{"long":103.747405,"lat":1.397535}},{"name":"Drs Koo & Neoh Medical Group","address":"Civic Centre, Prince George, British Columbia, Canada","contact":"64626294","notes":"Mon-Fri: 8.30am to 12.30pm; 2pm to 4.30pm Sat: 8.30am to 12.30pm\nClosed on Sun & PH","coordinates":{"long":-122.745687,"lat":53.911945}},{"name":"Drs Koo, Fok & Associates Pte Ltd","address":"01-12 Benoi Road, Singapore 627798, Singapore","contact":"62922975","notes":"Monday to Friday: 8.30 am to 12 noon\nSaturday/ Sunday/ PH: closed","coordinates":{"long":103.675601,"lat":1.309176}},{"name":"DRS OH, LIM, WONG & PARTNERS","address":"959 Jurong West Street 92, Singapore 640959, Singapore","contact":"67913988","notes":"Monday, Wednesday: 8:30am–8:30pm Tuesday, Thursday, Friday: 8:30am–5:30pm Saturday: 8:30am–12pm\nSunday Closed","coordinates":{"long":103.690722,"lat":1.341481}},{"name":"DRS SINGH & PARTNERS, RAFFLES CITY\nMEDICAL CENTRE","address":"Raffles City Shopping Centre, 252 North Bridge Rd., Singapore, Central 179103, Singapore","contact":"63388883","notes":"MONDAY TO SATURDAY 9.00AM TO 12.30PM\nSUNDAY AND PUBLIC HOLIDAY : CLOSED","coordinates":{"long":103.853246,"lat":1.293688}},{"name":"DRS TANG & PARTNERS PTE. LTD.","address":"64 Yung Kuang Road, Singapore 610064, Singapore","contact":"62656077","notes":"Mon-Fri: 9.00am to 5.00pm Sat: 9.00am to 12.00pm Sun: Closed\nPH: Closed","coordinates":{"long":103.722451,"lat":1.332374}},{"name":"Drs. Bain & Partners","address":"2 International Business Park, Singapore 609930, Singapore","contact":"63162648","notes":"Mon-Fri 0830 - 1300hrs 1400 - 1700hrs Sat 0900 - 1230hr\nSunday and Public Holidays - Closed","coordinates":{"long":103.747108,"lat":1.330089}},{"name":"DTAP @ Novena","address":"Novena Medical Centre, 10 Sinaran Dr, Singapore, Central 307642, Singapore","contact":"63972095","notes":"Monday - Friday 8.30am - 5.30pm\nSat 9am -1pm","coordinates":{"long":103.84413,"lat":1.320718}},{"name":"E MEDICAL CLINIC & SURGERY","address":"126 Lorong 1 Toa Payoh, Singapore 310126, Singapore","contact":"63569391","notes":"Mon , Wed : 9am - 2pm, 6pm - 9pm Tue, Thurs, Fri: 9am -5pm\nSat, Sun: 9am - 2pm","coordinates":{"long":103.845159,"lat":1.337985}},{"name":"E.J. TAN CLINIC & SURGERY","address":"104 Jurong East Street 13, Singapore 600104, Singapore","contact":"65606600","notes":"Monday to Friday : 08:30 am to 12:30 pm, 02:00 pm to 04:00\npm, 07:00 pm to 09:30 pm\nSaturday : 08:30 am to 12:30 pm, 07:00 pm to 09:00 pm","coordinates":{"long":103.737627,"lat":1.336578}},{"name":"EAST COAST FAMILY CLINIC","address":"121 Meyer Road, Singapore 437932, Singapore","contact":"64404556","notes":"Monday to Thursday : 08:30 am to 03:00 pm, 06:30 pm to 08:30 pm\nWednesday : 08:30 am to 12:30 pm, 06:30 pm to 08:30 pm Friday : 08:30 am to 03:00 pm\nSaturday and Sunday : 09:00 am to 12:30 pm","coordinates":{"long":103.894446,"lat":1.297693}},{"name":"EASTERN MEDICAL CENTRE","address":"631 Bedok Reservoir Road, Singapore 470631, Singapore","contact":"64487628","notes":"MONDAY, TUESDAY, THURSDAY - 8:30 AM TO 12:30PM; 2 TO 4:30PM\nWEDNESDAY, FRIDAY, SATURDAY 8:30 AM TO 12: 30PM SUNDAY, PUBLIC HOLIDAY - CLOSED\nSASH HOURS - MONDAYS TO SATURDAYS - 8:30AM TO 11:30 AM","coordinates":{"long":103.914891,"lat":1.333312}},{"name":"EC family clinic pte ltd","address":"409423, Singapore, South East, Singapore","contact":"67426103","notes":"Monday to Friday 9.30am to 1pm, 4.30pm to 7.00pm Saturday 10.00am to 1pm, 4.30pm to 6.00pm Sunday 10am to 1pm, 2.30pm to 5pm\nClosed on public holiday","coordinates":{"long":103.90323,"lat":1.319688}},{"name":"EDGEDALE MEDICAL CLINIC","address":"122a Edgedale Plains, Singapore 821122, Singapore","contact":"66352272","notes":"Mon: 9am to 1pm, 2.30 to 4.30pm, 6 to 9pm Tues – Fri: 9am to 1pm, 6 to 9pm  Weekends: 9am to 1pm, 6.30 to 8.30pm\nPH: Closed","coordinates":{"long":103.909257,"lat":1.393618}},{"name":"EDGEDALE MEDICAL CLINIC\n(CAMBRIDGE)","address":"210040, Singapore, Central, Singapore","contact":"62921088","notes":"Weekdays: 9am to 12pm\nWeekends & PH: Closed","coordinates":{"long":103.847951,"lat":1.315948}},{"name":"EE CLINIC","address":"128 Ang Mo Kio Avenue 3, Singapore 560128, Singapore","contact":"64521042","notes":"Mon, Tue, Thu, Fri: 0830 -1200, 1400 - 1630, 1900 - 2100\nWed: 0830 - 1200, 1400 - 1630\nSat: 0830 - 1200\nSun & PH: Closed","coordinates":{"long":103.843548,"lat":1.370837}},{"name":"EH MEDICAL","address":"Singapore","contact":"62511526","notes":"Mon to Thur  - 8am to 2pm and 530-9pm Fri                   - 8am to 2pm\nSat to Sun     - 8am to 1230pm\nClosed on PH","coordinates":{"long":103.808052586332,"lat":1.3516161224392}},{"name":"EH MEDICAL FAMILY CLINIC (BUKIT BATOK)","address":"292 Bukit Batok East Avenue 6, Singapore 654292, Singapore","contact":"62551368","notes":"Mon to Fri 0830 to 1400\nMon to Thur 1830 to 2130\nSat & Sun 0830 to 1230 Closed on PH","coordinates":{"long":103.754845,"lat":1.345116}},{"name":"EHA CLINIC @ JURONG","address":"Blk 492 Jurong West Street 41, 492 Jurong West St. 41, Singapore, West 640492, Singapore","contact":"65660257","notes":"Monday to Friday : 09:00 am to 01:00 pm, 02:30 pm to 04:30\npm, 06:30 pm to 10:00 pm\nSaturday to Sunday : 09:00 am to 01:00 pm, 05:00 pm to 10:00 pm","coordinates":{"long":103.725004,"lat":1.3499124999999998}},{"name":"EIDDWEN FAMILY MEDICINE CLINIC","address":"390034, Singapore, Central, Singapore","contact":"69705818","notes":"Monday to Friday : 08:30 am to 12:30 pm, 02:30 pm to 04:30\npm, 06:30 pm to 08:30 pm Saturday : 08:30 am to 12:30 pm\nSunday and Public Holiday :  Closed","coordinates":{"long":103.884478,"lat":1.309618}},{"name":"EJ FAMILY CLINIC & SURGERY","address":"Blk 157, Singapore, Central 310500, Singapore","contact":"63530811","notes":"Mon - Fri: 08.00am to 02.00pm, 06.00pm to 09.00pm Sat: 08.00am to 11.00am\nSun: 08.00am to 02.00pm\nPH: Closed","coordinates":{"long":103.846711,"lat":1.332823}},{"name":"ELISSA MEDICAL CLINIC","address":"1 Hougang Street 91, Singapore 538692, Singapore","contact":"63122632","notes":"Tue & Thu 0830am-9pm\nWed & Fri 0830am-5pm Sat 0830am-1pm","coordinates":{"long":103.879788,"lat":1.375919}},{"name":"ESSENTIAL FAMILY CLINIC & SURGERY","address":"626a Woodlands Drive 52, Singapore 732624, Singapore","contact":"63668057","notes":"MON /TUES/THURS 0830-1230 2-4PM 7-9PM WED/FRI 0830-1230 2-4PM\nSAT 0830-1230\nSUN/PH CLOSED","coordinates":{"long":103.799474,"lat":1.434965}},{"name":"Etern Medical Clinic","address":"Central, Singapore","contact":"64259935","notes":"Mon - Fri: 08.30am to 01.00pm, 02.00pm to 05.00pm, 06.30pm to 09.30pm\nSat - Sun: 08.30am to 01.00pm\nPH: 08.30am to 01.00pm","coordinates":{"long":103.848198,"lat":1.332652}},{"name":"Etern Medical Clinic (Fernvale Palm)","address":"432a Sengkang West Way, Singapore 791432, Singapore","contact":"66047224","notes":"Mon - Fri: 08.30am to 01.00pm Mon-Fri : 6.30pm to 9.30pm Sat - Sun: Closed\nPH: Closed","coordinates":{"long":103.877095,"lat":1.394779}},{"name":"Etern Medical Clinic (Punggol Sumang LRT)","address":"Punggol Road, 829168, Singapore","contact":"62467288","notes":"Mon - Fri: 08.30am to 01.00pm Mon - Wed : 6.30pm to 9.30pm Sat - Sun: Closed\nPH: Closed","coordinates":{"long":103.911073400193,"lat":1.4201011}},{"name":"Etern Medical Clinic (Sengkang)","address":"33 Sengkang West Avenue, Singapore 797653, Singapore","contact":"64257255","notes":"Mon - Fri: 08.30am to 01.00pm, 02.00pm to 05.00pm, 06.30pm to 09.30pm\nSat - Sun: 09.00am to 03.00pm, 06.30pm to 09.30pm\nPH: 09.00am to 03.00pm, 06.30pm to 09.30pm","coordinates":{"long":103.876126,"lat":1.39147}},{"name":"EVERHEALTH FAMILY CLINIC & SURGERY","address":"Bukit Batok Street 41, Singapore 657992, Singapore","contact":"67933113","notes":"Mon,Tue,Thu: 11.00 am to 07.00 pm Wed: 11.00am to 04.00pm\nFri: 10.00am to 12.00pm Sat: 10.00am to 11.30am Sun: Closed\nPH: Closed","coordinates":{"long":103.7415346,"lat":1.3562499}},{"name":"EVERHEALTH MEDICAL CENTRE","address":"540 Hougang Avenue 8, Singapore 530540, Singapore","contact":"63850815","notes":"Mon & Tues 10 am -12noon, 2 pm to 4 pm Wed to Fri 10 am to 12 noon\nSat 10 am to 11.30 am\nSun and PH closed","coordinates":{"long":103.89128,"lat":1.377815}},{"name":"Everton Clinic","address":"080007, Singapore, Central, Singapore","contact":"62207872","notes":"Mon, Tues, Thurs 8.30am-12.30pm, 2-5pm, 6.30-8.30pm Fri 8.30am-12.30pm, 2-5pm\nSun 8.30am-12.30pm","coordinates":{"long":103.83904,"lat":1.276975}},{"name":"EXCEL FAMILY CLINIC","address":"21 Hougang Street 51, Singapore 538719, Singapore","contact":"63865278","notes":"Mon -Fri:  9am -11am, 2pm-330 pm Sat: 9am -11 am\nSun & PH: closed","coordinates":{"long":103.887832,"lat":1.379245}},{"name":"EXECUTIVE HEALTH SCREENERS (GLENEAGLES)","address":"258500, Singapore, Central, Singapore","contact":"64756266","notes":"Mon to Thur  - 8am to 2pm and 530-9pm Fri                   - 8am to 2pm\nSat to Sun     - 8am to 1230pm\nClosed on PH","coordinates":{"long":103.819478,"lat":1.307466}},{"name":"EXECUTIVE HEALTH SCREENERS (MOUNT ELIZABETH)","address":"Singapore","contact":"62357010","notes":"Mon to Fri: 8:00am to 1:00pm; 2:00pm to 4:30pm Sat: 8:00am to 12:30pm\nClosed: Sun & Public Holidays","coordinates":{"long":103.808052586332,"lat":1.3516161224392}},{"name":"FAIRCARE FAMILY CLINIC (CLEMENTI)","address":"345 Clementi Avenue 5, Singapore 120345, Singapore","contact":"62503198","notes":"Public Holiday : Closed\nMonday to Tuesday : 08:30 am to 01:00 pm, 02:00 pm to 04:30\npm, 06:30 pm to 10:00 pm\nWednesday to Thursday : 08:30 am to 01:00 pm, 06:30 pm to 10:00 pm\nFriday : 08:30 am to 01:00 pm, 02:00 pm to 04:30 pm, 06:30 pm\nto 10:00 pm\nSaturday and Sunday : 08:30 am to 01:00 pm","coordinates":{"long":103.769085,"lat":1.317677}},{"name":"FAITH CLINIC (BEDOK)","address":"746 Bedok Reservoir Road, Singapore 470746, Singapore","contact":"67020820","notes":"10am to 3pm (MON-FRI)","coordinates":{"long":103.921216,"lat":1.337287}},{"name":"FAITH CLINIC (JURONG WEST)","address":"762 Jurong West Street 75, Singapore 640762, Singapore","contact":"67916780","notes":"Swab Timing : 9am to 12pm (MON-SUN)”","coordinates":{"long":103.697612,"lat":1.348885}},{"name":"FAITH CLINIC (SIMEI)","address":"01-10 Simei Street 1, Singapore 520111, Singapore","contact":"67884303","notes":"Swab Timing : 9am to 12pm (MON-SUN)”","coordinates":{"long":103.949651,"lat":1.34248}},{"name":"FAITH CLINIC (TOA PAYOH)","address":"Toa Payoh Lor 8 Block 5, Singapore, Central 319057, Singapore","contact":"62527896","notes":"Swab Timing : 9am to 12pm (MON-SUN)”","coordinates":{"long":103.860601,"lat":1.336159}},{"name":"FAITH CLINIC (YISHUN)","address":"598 Yishun Ring Road, Singapore 760860, Singapore","contact":"63391129","notes":"Swab Timing : 9am to 12pm (MON-SUN)”","coordinates":{"long":103.840397,"lat":1.41792}},{"name":"FAITH FAMILY CLINIC","address":"57 Marine Terrace, Singapore 440057, Singapore","contact":"64466326","notes":"Swab Timing : 9am to 12pm (MON-SUN)”","coordinates":{"long":103.915407,"lat":1.30634}},{"name":"FAITH HEALTHCARE (TAMPINES)","address":"Tampines Street 32, Singapore 520328, Singapore","contact":"64433843","notes":"Swab Timing : 9am to 12pm (MON-SUN)”","coordinates":{"long":103.9582841,"lat":1.3533541}},{"name":"FAITH HEALTHCARE RIVERVALE","address":"Rivervale Mall, 11 Rivervale Crescent, Singapore, North-East 545082, Singapore","contact":"63157879","notes":"MON - FRI : 9AM - 12PM\nSATURDAY & SUNDAY : 8:30AM - 10:30AM","coordinates":{"long":103.904835,"lat":1.392263}},{"name":"FAITH MEDICAL CLINIC & SURGERY","address":"487c Tampines Street 45, Singapore 522487, Singapore","contact":"67881061","notes":"MON TO FRI  9 AM TO 12 NOON FOR PREDEPARTURE SWABS","coordinates":{"long":103.957877,"lat":1.360681}},{"name":"FAMILY CARE CLINIC PTE LTD","address":"West, Singapore","contact":"65671775","notes":"Monday and Tuesday : 09:00 am to 01:00 pm, 02:00 pm to 04:30\npm, 07:00 pm to 09:00 pm Wednesday : 09:00 am to 01:00 pm\nThursday and Friday : 09:00 am to 01:00 pm, 02:00 pm to 04:30\npm, 07:00 pm to 09:00 pm  Saturday : 09:00 am to 12:30 pm Sunday and Public Holiday :  Closed","coordinates":{"long":103.709375,"lat":1.315042}},{"name":"FAMILY HEALTH CLINIC & SURGERY","address":"320002, Singapore, Central, Singapore","contact":"62542440","notes":"Mon-Friday : 9.00 am to 1230 pm, 2.00 pm-5.30 pm\nSat : 9.00 am to 12.30 pm","coordinates":{"long":103.842808,"lat":1.325772}},{"name":"FAMILY MEDICARE CLINIC & SURGERY","address":"721 Ang Mo Kio Avenue 8, Singapore 560721, Singapore","contact":"64566582","notes":"Mon - Fri: 08.30am to 12pm, 02.00pm to 04.00pm, 07.00pm to 08.30pm\nSat: 08.30am to 12.00pm","coordinates":{"long":103.847898,"lat":1.372347}},{"name":"Family Medicine Clinic Chinatown","address":"133 New Bridge Road, Singapore 059413, Singapore","contact":"62255155","notes":"9 am to 5:30 pm (Mon to Fri)\n9 am to 12:30 pm (Mon to Sat)","coordinates":{"long":103.845214,"lat":1.285439}},{"name":"FAMILYCARE CLINIC & SURGERY","address":"Playground @ Block 81A-81C, Block 81A-81C, Singapore, Central 312081, Singapore","contact":"62509033","notes":"Monday to Friday: 9am to 12.30pm, 2pm to 4pm, 7.30pm to 9.30pm\nSaturday & Sunday: 9am to 12.30pm\nClosed on Public Holidays","coordinates":{"long":103.849917,"lat":1.335835}},{"name":"FARRER PARK HOSPITAL","address":"1 Farrer Park Station Road, Singapore 218703, Singapore","contact":"63631818","notes":"Mon to Sun: 24hrs at L2 Emergency Clinic (by appointment only)","coordinates":{"long":103.85393,"lat":1.312473}},{"name":"FEMA Clinic & Surgery","address":"Novena Medical Centre, 10 Sinaran Dr, Singapore, Central 307642, Singapore","contact":"68543720","notes":"Monday to Friday = 0900hrs to 1700hrs","coordinates":{"long":103.84413,"lat":1.320718}},{"name":"FINEST HEALTH MEDICAL CENTRE (TPY) PTE. LTD.","address":"19 Lorong 7 Toa Payoh, Singapore 310019, Singapore","contact":"62640852","notes":"Mon - Fri: 8am - 2pm Sat: 9am - 1pm\nSun & PH: Closed","coordinates":{"long":103.856479,"lat":1.335329}},{"name":"FIRST CARE FAMILY CLINIC & SURGERY\nPTE LTD","address":"253 Jurong East Street 24, Singapore 600253, Singapore","contact":"64252350","notes":"MONDAY TO SUNDAY 0800H-1300H, 1800H-2200H\nEXCLUDING PUBLIC HOLIDAYS","coordinates":{"long":103.737074,"lat":1.343536}},{"name":"Foo and Ong Family Clinic Pte Ltd","address":"151 Bukit Batok Street 11, Singapore 650151, Singapore","contact":"65672212","notes":"Mon to Sun 9am to 1:30pm\nMon to Fri 6pm to 9pm","coordinates":{"long":103.744213,"lat":1.348748}},{"name":"fraser medical centre","address":"78a Telok Blangah Street 32, Singapore 102078, Singapore","contact":"62733603","notes":"Mon and Thurs 9am to 2pm\nTues and Wed 9am to 3.30pm Saturday 9am to 12nn","coordinates":{"long":103.808328,"lat":1.273642}},{"name":"Frontier Family Medicine Clinic","address":"3151 Commonwealth Avenue West, Singapore 129581, Singapore","contact":"67450874","notes":"Mon to Fri 0830-1500 hrs","coordinates":{"long":103.765148,"lat":1.31427}},{"name":"FRONTIER MEDICAL ASSOCIATES","address":"678d Jurong West Street 64, Singapore 644678, Singapore","contact":"67450875","notes":"Mon to Fri 8.30AM-12PM","coordinates":{"long":103.703393,"lat":1.344955}},{"name":"FRONTIER MEDICAL ASSOCIATES","address":"01-05 Bukit Batok West Avenue 8, Singapore 650446, Singapore","contact":"67450875","notes":"Mon to Fri 8.30am-12pm","coordinates":{"long":103.739513,"lat":1.349837}},{"name":"FRONTIER MEDICAL ASSOCIATES","address":"01-07 Bukit Batok West Avenue 6, Singapore 651188, Singapore","contact":"67450875","notes":"MON TO FRI 8AM-12PM","coordinates":{"long":103.745615,"lat":1.347008}},{"name":"Frontier Medical Associates","address":"Singapore","contact":"67450875","notes":"Mon to Thurs 0830-1500 hrs\nFri 0830-1200 hrs","coordinates":{"long":103.808052586332,"lat":1.3516161224392}},{"name":"FRONTIER MEDICAL ASSOCIATES","address":"899c Woodlands Drive 50, Singapore 732899, Singapore","contact":"67450875","notes":"Mon to Fri 8am to 2pm","coordinates":{"long":103.79528,"lat":1.436529}},{"name":"FRONTIER MEDICAL ASSOCIATES","address":"105 Canberra Street, 105 Canberra Street, Singapore, North 750105, Singapore","contact":"67450875","notes":"Mon to Fri 8.30-10.30am","coordinates":{"long":103.8324,"lat":1.448697}},{"name":"Frontier Medical Associates","address":"691 Woodlands Drive 73, Singapore 738096, Singapore","contact":"67450875","notes":"Mon to Fri 8.30am to 12.00pm","coordinates":{"long":103.804796,"lat":1.442627}},{"name":"Frontier People's Clinic","address":"123 Bedok North Street 2, Singapore 460123, Singapore","contact":"67450875","notes":"Monday, Tuesday & Thursday 8.30am to 2pm\nWednesday & Friday 8.30am to 10am","coordinates":{"long":103.937347,"lat":1.329195}},{"name":"FULLERTON HEALTH @ AMS","address":"01-00 Ang Mo Kio Avenue 5, Singapore 569878, Singapore","contact":"6563333636","notes":"Mon – Fri: 7.00am - 11.00am, 6.00pm - 8.00pm","coordinates":{"long":103.844534,"lat":1.377258}},{"name":"FULLERTON HEALTH @ DRS TRYTHALL\nHOY DAVIES","address":"Ngee Ann City Tower B, 391B Orchard Rd, Singapore, Central 238872, Singapore","contact":"6563333636","notes":"Monday to Friday : 8.30am- 10.30am, 2pm-3pm\nSaturday                : 8.30am – 10.30am","coordinates":{"long":103.834189,"lat":1.303032}},{"name":"FULLERTON HEALTH @ GLOBALFOUNDRIES","address":"60 Woodlands Industrial Park D Street 2, Singapore 738406, Singapore","contact":"6563333636","notes":"Monday - Friday : 8.30am-1.00pm\n2.00pm - 4.30pm\nSat, Sun & PH: Closed","coordinates":{"long":103.767572,"lat":1.439461}},{"name":"FULLERTON HEALTH @ LUMILEDS","address":"190 Yishun Avenue 7, Singapore 768925, Singapore","contact":"6563333636","notes":"Monday - Friday : 8.30am-1.00pm\n2.00pm - 4.30pm Sat, Sun & PH: Closed","coordinates":{"long":103.83592,"lat":1.440589}},{"name":"FULLERTON HEALTH @ MICRON FAB10N","address":"1 North Coast Drive, Singapore 757696, Singapore","contact":"6563333636","notes":"Mon – Fri: 8am – 11am\nSat & Ph: 8am to 9.30am Sun: Closed","coordinates":{"long":103.792181,"lat":1.455228}},{"name":"FULLERTON HEALTH @ MICRON FAB10W","address":"1 Woodlands Industrial Park D Street 1, Singapore 738799, Singapore","contact":"6563333636","notes":"Mon – Fri: 8am – 11am\nSat & Ph: 8am to 9.30am Sun: Closed","coordinates":{"long":103.766442,"lat":1.430441}},{"name":"FULLERTON HEALTH @ MICRON MSB","address":"990 Bendemeer Road, Singapore 339942, Singapore","contact":"6563333636","notes":"Mon – Fri: 8am – 12pm & 6.30pm – 8pm\nSat: 7.30am – 3pm\nSun & Ph: Closed","coordinates":{"long":103.864638,"lat":1.318366}},{"name":"FULLERTON HEALTH @ NTU","address":"36 Nanyang Avenue, Singapore 639801, Singapore","contact":"63333636 /\nEXT 2","notes":"Swabbing is only for NTU students /staff\nMonday to Friday : 8.30am - 4.30pm Saturday                : 9.30am - 11am","coordinates":{"long":103.682671,"lat":1.345385}},{"name":"FULLERTON HEALTH @ OFC","address":"Singapore","contact":"63333636 /\nEXT 2","notes":"Monday to Friday : 8.30am - 10.30am, 2pm - 3pm\nSaturday                : 8.30am - 10.30am","coordinates":{"long":103.808052586332,"lat":1.3516161224392}},{"name":"FULLERTON HEALTH @ PASIR PANJANG","address":"117404, Singapore, West, Singapore","contact":"6563333636","notes":"Mon – Fri: 7.00am – 1.00pm\n:2.00pm – 5.00pm\nSat : 7.00am - 1.00pm Sun & Ph: Closed","coordinates":{"long":103.784245,"lat":1.267219}},{"name":"FULLERTON HEALTH @ STATS CHIPPAC","address":"5 Yishun Street 23, Singapore 768442, Singapore","contact":"6563333636","notes":"Mon – Fri: 7.30am – 11.30am, 6.30pm - 8.30pm\nSat, Sun & Ph: Closed","coordinates":{"long":103.842755,"lat":1.439622}},{"name":"FULLERTON HEALTH @ TRACTORS","address":"26 Benoi Sector, Singapore 629858, Singapore","contact":"6563333636","notes":"Mon/Wed & Fri: 9am – 10am\nSat, Sun & PH - Closed","coordinates":{"long":103.689469,"lat":1.316113}},{"name":"Fullerton Health @ UBS","address":"One Raffles Quay, 1 Raffles Quay, Singapore, Central 048583, Singapore","contact":"6563333636","notes":"Only swabbing for adults (13 and above)","coordinates":{"long":103.85189887499999,"lat":1.2815561249999998}},{"name":"FULLERTON HEALTH @ USG 1","address":"5 Serangoon North Avenue 5, Singapore 554916, Singapore","contact":"6563333636","notes":"Mon – Fri: 8.00am – 12.00pm\nSat, Sun & Ph: Closed\nConsultation Hour: 8.30am - 10am","coordinates":{"long":103.867619,"lat":1.374014}},{"name":"FULLERTON HEALTHCARE @ ARC","address":"02-18 Alexandra Road, Singapore 158750, Singapore","contact":"63333636","notes":"Monday to Thursday : 8.30am - 11.30am, 2pm -3.30pm\nFriday                          : 8.30am - 11.30am, 2pm -3pm","coordinates":{"long":103.818169,"lat":1.291226}},{"name":"FULLERTON HEALTHCARE @ BAT","address":"Singapore","contact":"6563333636","notes":"Monday-Friday : 0800am - 1100am\nMonday-Friday OTC: 3.00pm - 5.00pm Sat, Sun & PH - Closed ","coordinates":{"long":103.808052586332,"lat":1.3516161224392}},{"name":"FULLERTON HEALTHCARE @ DRS\nTRYTHALL HOY DAVIES","address":"Central, Singapore","contact":"63333636 /\nEXT 2","notes":"Monday to Friday : 9am - 11am, 2pm - 3.30pm\nSaturday                : 9am - 11am","coordinates":{"long":103.848198,"lat":1.332652}},{"name":"FULLERTON HEALTHCARE @ GETHIN-\nJONES","address":"78 Shenton Way, 78 Shenton Way, Singapore, Central 079120, Singapore","contact":"63333636 /\nEXT 2","notes":"Monday to Friday : 9am - 11am, 2pm - 3pm\nSaturday                : 9am - 11am","coordinates":{"long":103.844625,"lat":1.272963}},{"name":"FULLERTON HEALTHCARE @ MBFC","address":"Singapore","contact":"63333636","notes":"Mon - Thur : 8.30am - 11.30am, 2pm - 3.30pm Fri: 08.30am to 10.00am\nClosed on Sat, Sun and PH","coordinates":{"long":103.808052586332,"lat":1.3516161224392}},{"name":"FULLERTON HEALTHCARE @\nMETROPOLIS","address":"9 North Buona Vista Drive, Singapore 138588, Singapore","contact":"63333636","notes":"Monday to Thursday : 8.30am - 11.30am, 2pm - 3.30pm\nFriday                          : 8.30am - 11.30am, 2pm - 3pm","coordinates":{"long":103.791237,"lat":1.306246}},{"name":"FULLERTON HEALTHCARE @ OFS","address":"Overseas Family School, Elias Road, Singapore, North-East 519292, Singapore","contact":"6563333636","notes":"Monday-Friday : 0830am - 1030am\nSat, Sun & PH - Closed","coordinates":{"long":103.942483,"lat":1.380892}},{"name":"FUSION MEDICAL & HEALTH SCREENING CENTRE","address":"Nexus@one-north, 1 Fusionopolis Link, Singapore, West 138542, Singapore","contact":"62506548","notes":"Mon to Fri: 8:30AM - 5PM Lunch hours: 12:30PM -1:30PM\nFrom Sep 2020 (until further notice): 8:30AM - 12PM\n(by appointment only)","coordinates":{"long":103.789787,"lat":1.299069}},{"name":"FUSION MEDICAL HEALTH SCREENING & AESTHETIC","address":"501 Orchard Road, Singapore 238880, Singapore","contact":"62351512","notes":"MON- FRI - 0830 TO 1730\nSAT - 0830 TO 1300\nPH - CLOSE","coordinates":{"long":103.830642,"lat":1.304676}},{"name":"GAINHEALTH CLINIC AND HOMECARE","address":"531 Ang Mo Kio Avenue 10, Singapore 560531, Singapore","contact":"69700802","notes":"9am to 8pm","coordinates":{"long":103.854384,"lat":1.373353}},{"name":"GARDEN CLINIC","address":"304 Serangoon Avenue 2, Singapore 550304, Singapore","contact":"63821878","notes":"Mon-Fri: 9.00am to 12.30pm, 2.00pm to 5.00pm\nSat and Sun: 9.00am to 12.00pm","coordinates":{"long":103.86771,"lat":1.353857}},{"name":"GENERAL PRACTICE FAMILY CLINIC &\nSURGERY","address":"68 Kallang Bahru, Singapore 339339, Singapore","contact":"62969608","notes":"10am -2pm\n7pm-9:30pm","coordinates":{"long":103.865043,"lat":1.316244}},{"name":"GETHIN -JONES MEDICAL PRACTICE PTE\nLTD","address":"205 Braddell Road, Singapore 310221, Singapore","contact":"6563333636","notes":"Monday to Friday : 9am - 11am, 2pm - 3pm\nSaturday                : 9am - 11am","coordinates":{"long":103.857932,"lat":1.342766}},{"name":"GLENEAGLES HOSPITAL","address":"6a Napier Road, Singapore 258500, Singapore","contact":"64705707","notes":"24hours, 7 days a week","coordinates":{"long":103.819605,"lat":1.307428}},{"name":"GOLDEN MILE CLINIC","address":"5001 Beach Road, Singapore 199588, Singapore","contact":"62970293","notes":"Mon-Fri: 10am-2pm, 4pm-7pm Sun: 1pm-4pm\nAppointment is required. No walk-in.","coordinates":{"long":103.865307,"lat":1.303017}},{"name":"GOOD SHEPHERD FAMILY CLINIC","address":"9 Jalan Kukoh, Singapore 160009, Singapore","contact":"65134861","notes":"Mon-Fri 8.30am-12.30pm, 6pm-9pm","coordinates":{"long":103.838865,"lat":1.287679}},{"name":"GREEN CROSS MEDICAL CENTRE","address":"824 Tampines Street 81, Singapore 520824, Singapore","contact":"67813011","notes":"Mon-Fri: 0900 to 2100\nSat: 0900 to 1200\nSun and PH: closed","coordinates":{"long":103.93268,"lat":1.349125}},{"name":"GREENFOREST FAMILY CLINIC","address":"01-71 Tampines Avenue 8, Singapore 529594, Singapore","contact":"67850157","notes":"Mon to Fri: 9AM - 2PM Mon to Thu: 6PM - 9PM\nSat and Sun: 9AM - 1PM","coordinates":{"long":103.92877,"lat":1.349474}},{"name":"GREENLINK MEDICAL CLINIC","address":"807 Yishun Ring Road, Singapore 760807, Singapore","contact":"67552238","notes":"Monday - Wednesday: 830am-230pm, 630pm-830pm Thursday - Friday: 830am-230pm\nSaturday: 830am-1200noon","coordinates":{"long":103.831575,"lat":1.416667}},{"name":"HAVELOCK FAMILY CLINIC","address":"Singapore","contact":"62724242","notes":"9am-12.30pm,   2-4pm Mon-Sat Mon, Tue, Thurs 7-9pm\nSun /PH closed","coordinates":{"long":103.808052586332,"lat":1.3516161224392}},{"name":"Heal Medical Centre","address":"262 Balestier Road, Singapore 329714, Singapore","contact":"62509550","notes":"Mon- Friday 0900-1700h","coordinates":{"long":103.8532,"lat":1.322133}},{"name":"HEALTH FIRST FAMILY CLINIC","address":"Multi Storey Car Park, Blk 718A, Pasir Ris St 72, Singapore, North-East 510720, Singapore","contact":"67932833","notes":"Monday, Tuesday, Thursday, Friday 9 am-1230pm, 1400-1530 Sunday 9am-1130am\nClose on PH","coordinates":{"long":103.936211,"lat":1.381706}},{"name":"HEALTH OUTREACH CLINIC","address":"Singapore","contact":"67771227","notes":"Monday to Friday: 8.30am - 11.00am Saturday: 1.00 pm to 4.00pm\nBy appointment only.","coordinates":{"long":103.808052586332,"lat":1.3516161224392}},{"name":"HEALTH PARTNERS MEDICAL CLINIC","address":"100 Cecil Street, Singapore 069532, Singapore","contact":"62255036","notes":"830-1245 2-515 M-F\n830-1215 Sat\nClosed Sun & P/H","coordinates":{"long":103.848958,"lat":1.281136}},{"name":"HEALTH PARTNERSHIP MEDICAL CENTRE","address":"109 Bukit Purmei Road, Singapore 090109, Singapore","contact":"62782860","notes":"Mondays to Fridays 08.30am to 11.00am, 12.30pm to 04.00pm, 06.00pm to 08.00pm. Sat, Sun: 08.30 to 12.00pm. PH: NA","coordinates":{"long":103.825317,"lat":1.273933}},{"name":"HEALTHCARE FAMILY CLINIC & SURGERY","address":"403 Sin Ming Avenue, Singapore 570403, Singapore","contact":"64542373","notes":"Monday to Friday 8.30am to 11.30am, 2.30pm to 3.30pm.\nSaturday 9am to 11.30am","coordinates":{"long":103.833418,"lat":1.362858}},{"name":"Healthcare Medical @ Kovan","address":"208 Hougang Street 21, Singapore 530208, Singapore","contact":"62821118","notes":"Mon - Thur 0830h-1300h 1400h-1700h ,1830h-2130h Fri 0830h-1300h 1400h-1700h\nSat 0830h-1230h\nSun/ PH Closed","coordinates":{"long":103.886636,"lat":1.358697}},{"name":"HEALTHIFY MEDICAL FAMILY CLINIC","address":"01-04 Balestier Road, Singapore 329676, Singapore","contact":"69779773","notes":"Mon, Tues, Thursday:  9:00am- 7:30pm Wednesday and Friday : 9:00am- 4:00pm\nSat : 9:00am-11:00am","coordinates":{"long":103.856516,"lat":1.317494}},{"name":"HEALTHLIFE FAMILY CLINIC","address":"01-64 Bukit Batok Street 22, Singapore 653296, Singapore","contact":"69048680","notes":"Monday to Wednesday : 08:30 am to 01:00 pm, 02:00 pm to 04:00 pm, 06:00 pm to 09:00 pm\nThursday : 08:30 am to 01:00 pm\nFriday : 08:30 am to 01:00 pm, 06:00 pm to 09:00 pm Saturday : 08:30 am to 01:00 pm\nSunday : 06:00 pm to 09:00 pm\nClosed on public holidays","coordinates":{"long":103.748682,"lat":1.343855}},{"name":"HEALTHLINK MEDICAL CLINIC & SURGERY","address":"5 Upper Aljunied Lane, Singapore 360005, Singapore","contact":"62890885","notes":"Mon - Thur: 08.30 to 12.30pm, 02.00pm to 04.30pm, 06.30pm to 09.00pm\nFri, Sat, Sun: 08.30am to 12.30pm","coordinates":{"long":103.8799,"lat":1.333693}},{"name":"HEALTHMARK CLINIC (PASIR RIS)","address":"735 Pasir Ris Street 72, Singapore 510735, Singapore","contact":"65827823","notes":"Mon to Fri 0830-1300. Tue and Thu 1400-1700. Mon,Wed,Thu 1830-2130.\nSat and Sun 0830-1200","coordinates":{"long":103.936302,"lat":1.379533}},{"name":"HEALTHMARK FAMILY CLINIC (COMPASSVALE)","address":"263 Compassvale Street, Singapore 540263, Singapore","contact":"68810075","notes":"Public Holiday :  Closed\nMonday to Wednesday : 08:30 am to 12:30 pm, 01:30 pm to 04:30 pm, 06:00 pm to 09:00 pm\nThursday : 08:30 am to 12:30 pm\nFriday : 08:30 am to 12:30 pm, 01:30 pm to 04:30 pm Saturday and Sunday : 08:30 am to 12:30 pm","coordinates":{"long":103.89597,"lat":1.395028}},{"name":"Healthmark Family Clinic (Sims)","address":"48 Sims Place, Singapore 380048, Singapore","contact":"67414537","notes":"Mon to Fri : 8.30am to 2.30pm\nMon to Thu : 6.00pm to 9.00pm Sat and Sun : 8.30am to 12.30pm","coordinates":{"long":103.879441,"lat":1.317754}},{"name":"HEALTHMARK MEDICAL CLINIC","address":"Blk 639 Punggol Drive, 639 Punggol Drive, Singapore, North-East 823638, Singapore","contact":"68756696","notes":"Public Holiday :  Closed\nMonday to Thursday : 08:30 am to 02:00 pm, 06:00 pm to 09:00 pm\nFriday : 08:30 am to 02:00 pm Saturday : 08:30 am to 01:00 pm\nSunday :  Closed","coordinates":{"long":103.915654,"lat":1.39959}},{"name":"HEALTHMARK PIONEER MALL CLINIC","address":"638 Jurong West Street 61, Singapore 640638, Singapore","contact":"68613100","notes":"Public Holiday : 08:30 am to 01:00 pm Monday to Friday : 08:30 am to 01:30 pm, 04:30 pm to 10:00 pm\nSaturday and Sunday : 08:30 am to 01:00 pm","coordinates":{"long":103.697177,"lat":1.34169}},{"name":"HealthMatters - The Family Practice","address":"1 Pasir Ris Close, Singapore 519599, Singapore","contact":"65557555","notes":"Monday to Friday 9 am to 1pm , 3 pm to 5 pm No swabs on wednesdays and Saturdays.\nClosed on Sundays and PH","coordinates":{"long":103.954884,"lat":1.378114}},{"name":"HEALTHPLUS CLINIC  & SURGERY","address":"631 Bedok Reservoir Road, Singapore 470631, Singapore","contact":"64460529","notes":"9am to 1pm( mondays to sundays)","coordinates":{"long":103.914891,"lat":1.333312}},{"name":"HEALTHPLUS FAMILY CLINIC & SURGERY","address":"78a Telok Blangah Street 32, Singapore 102078, Singapore","contact":"62733327","notes":"Weekday: 9.30am to 12.30pm, 02.30pm to 04.30pm, 8pm- 10.30pm\nSat: 09.00am to 12.00pm\nSun: 09.30am to 12.30pm, 8pm to 10.30pm Public Holiday: Closed","coordinates":{"long":103.808328,"lat":1.273642}},{"name":"HEALTHSPRINGS MEDICAL & LASER\nCLINIC","address":"Bidadari Park Drive, Singapore 363202, Singapore","contact":"69707933","notes":"Weekdays: 11am to 12pm, 1 to 2pm","coordinates":{"long":103.8727788,"lat":1.339493}},{"name":"HEALTHSPRINGS MEDICAL ASSOCIATES","address":"Liat Towers, 541 Orchard Rd, Singapore, Central 238881, Singapore","contact":"67345310","notes":"Monday to Friday (9.00am - 1.00pm) & (2.00pm - 5.00pm) Saturday (9.00am - 1.00pm)\nSunday & PH (Closed)","coordinates":{"long":103.831011,"lat":1.305503}},{"name":"HEALTHSPRINGS MEDICAL CLINIC","address":"Greenridge Shopping Centre, 524A Jelapang Rd, Singapore, North 671524, Singapore","contact":"68926681","notes":"Weekdays: 11am to 12pm, 2 to 3pm","coordinates":{"long":103.766414,"lat":1.384871}},{"name":"Healthway Japanese Medical","address":"The Centrepoint, 176 Orchard Rd, Singapore, Central 238843, Singapore","contact":"67339785","notes":"Mon-Fri 9am to 1pm  2pm to 6pm Sat  9am to 1pm\nSun PH  closed","coordinates":{"long":103.83991449999999,"lat":1.3015150000000002}},{"name":"HEALTHWAY MEDICAL","address":"748 Yishun Street 72, Singapore 760748, Singapore","contact":"68537101","notes":"Mon - Fri: 0830am to 01.00pm, 02.00pm to 05.00pm\nSat :0830am to 01.00pm","coordinates":{"long":103.833468,"lat":1.427525}},{"name":"HEALTHWAY MEDICAL","address":"01-03 Bukit Batok West Avenue 8, Singapore 650446, Singapore","contact":"62565980","notes":"Mon - Fri: 08.30am to 1.00pm, 02.00pm to 05.00pm\nSat: 08.30am to 1.00pm","coordinates":{"long":103.739513,"lat":1.349837}},{"name":"HEALTHWAY MEDICAL","address":"Kwong Wai Shiu Hospital, 705 Serangoon Rd, Singapore, Central 328127, Singapore","contact":"62914331","notes":"Mon - Thurs: 0830 - 1200; 1400 - 1600","coordinates":{"long":103.85869500000001,"lat":1.3176320000000001}},{"name":"HEALTHWAY MEDICAL","address":"Blk 110 Lengkong Tiga, Blk 110 Lengkong Tiga, Singapore, South East 410110, Singapore","contact":"67494062","notes":"Mon - Fri: 08.30am to 1.00pm, 02.00pm - 05.00pm\nSat: 08.30am to 1.00pm","coordinates":{"long":103.91076,"lat":1.323726}},{"name":"HEALTHWAY MEDICAL","address":"330 Ang Mo Kio Avenue 1, Singapore 560330, Singapore","contact":"65530100","notes":"Mon - Fri: 0900 - 1300, 1400 - 1700","coordinates":{"long":103.851028,"lat":1.362431}},{"name":"HEALTHWAY MEDICAL","address":"153 Bukit Batok Street 11, Singapore 650153, Singapore","contact":"65679881","notes":"Mon - Sun: 08.00am - 1.00pm, 02.00pm - 05.00pm, 06.00pm -\n10.00pm","coordinates":{"long":103.744314,"lat":1.347655}},{"name":"HEALTHWAY MEDICAL","address":"218 Bedok North Street 1, Singapore 460218, Singapore","contact":"64410236","notes":"Mon - Fri: 08.00am to 10.00pm\nSat: 08.00am to 05.00pm","coordinates":{"long":103.934352,"lat":1.327428}},{"name":"HEALTHWAY MEDICAL","address":"267 Compassvale Link, Singapore 542267, Singapore","contact":"63438770","notes":"Mon - Fri: 08.30am - 05.00pm\nSat: 08.30am - 01.00pm","coordinates":{"long":103.897513,"lat":1.383243}},{"name":"HEALTHWAY MEDICAL","address":"168 Punggol Field, Singapore 820168, Singapore","contact":"63153493","notes":"Mon - Fri: 08.30am to 12.30pm, 02.00pm to 05.00pm Sat: 08.30am to 12.30pm\nSun: 09.00am to 12.00pm","coordinates":{"long":103.913047,"lat":1.394237}},{"name":"HEALTHWAY MEDICAL","address":"04-06 Hougang Avenue 10, Singapore 538766, Singapore","contact":"63437620","notes":"Mon - Fri: 09.00am to 05.00pm\nSat: 09.00am to 01.00pm","coordinates":{"long":103.894221,"lat":1.372483}},{"name":"HEALTHWAY MEDICAL","address":"Novena Medical Centre, 10 Sinaran Dr, Singapore, Central 307642, Singapore","contact":"63528696","notes":"Mon - Fri: 08.30am - 1.00pm, 02.00pm - 05.00pm","coordinates":{"long":103.84413,"lat":1.320718}},{"name":"HEALTHWAY MEDICAL","address":"6a Shenton Way, Singapore 068815, Singapore","contact":"62202383","notes":"Mon - Fri: 08.30am to 1.00pm, 02.00pm to 05.00pm","coordinates":{"long":103.849018,"lat":1.277982}},{"name":"HEALTHWAY MEDICAL","address":"Multi-Storey Car Park, 26 Jalan Membina, Singapore, Central 162118, Singapore","contact":"63123106","notes":"Mon - Fri: 08.30am to 01.00pm, 02.00pm - 05.00pm\nSat: 08.30am to 01.00pm","coordinates":{"long":103.826078,"lat":1.281931}},{"name":"HEALTHWAY MEDICAL","address":"625 Elias Road, Singapore 510625, Singapore","contact":"65846822","notes":"Mon - Fri: 08.30am to 05.00pm\nSat: 08.30am to 01.00pm","coordinates":{"long":103.941978,"lat":1.378602}},{"name":"HEALTHWAY MEDICAL","address":"721 Ang Mo Kio Avenue 8, Singapore 560721, Singapore","contact":"64554629","notes":"Mon - Fri: 08.00am to 03.00pm\nSat: 0830am to 1230pm","coordinates":{"long":103.847898,"lat":1.372347}},{"name":"HEALTHWAY MEDICAL","address":"670445, Singapore, North, Singapore","contact":"67690600","notes":"Mon - Fri: 08.30am - 12.30pm, 02.00pm - 04.30pm\nSat: 08.30am - 12.30pm","coordinates":{"long":103.770853,"lat":1.383535}},{"name":"HEALTHWAY MEDICAL","address":"710 Tampines Street 71, Singapore 520710, Singapore","contact":"62609081","notes":"Mon - Fri: 0830am to 01.00pm, 02.00pm to 05.00pm","coordinates":{"long":103.937706,"lat":1.358726}},{"name":"HEALTHWAY MEDICAL","address":"452 Ang Mo Kio Avenue 10, Singapore 560452, Singapore","contact":"64516558","notes":"Mon - Fri: 08.00am to 05.00pm\nSat: 08.00am to 01.00pm","coordinates":{"long":103.856268,"lat":1.368858}},{"name":"HEALTHWAY MEDICAL","address":"7 Eleven @ Blk 101 Towner Road, Blk 101 Towner Road, Singapore, Central 321105, Singapore","contact":"62977592","notes":"Mon - Fri: 08.30am to 05.00pm\nSat: 08.30am to 01.00pm","coordinates":{"long":103.861473,"lat":1.320791}},{"name":"HEALTHWAY MEDICAL","address":"888 Woodlands Drive 50, Singapore 730888, Singapore","contact":"63649661","notes":"Mon - Fri: 0830am to 01.00pm, 02.00pm to 05.00pm","coordinates":{"long":103.795309,"lat":1.437797}},{"name":"HEALTHWAY MEDICAL","address":"534 Choa Chu Kang Street 51, Singapore 680534, Singapore","contact":"67622555","notes":"Mon-Fri: 08.30am to 05.00pm\nSat: 08.30 to 01.00pm","coordinates":{"long":103.743191,"lat":1.392242}},{"name":"HEALTHWAY MEDICAL","address":"101 Yishun Avenue 5, Singapore 760101, Singapore","contact":"67551345","notes":"Mon - Fri: 08.30am to 01.00pm, 02.00pm to 05.00pm\nSat: 08.30am to 01.00pm","coordinates":{"long":103.827651,"lat":1.430919}},{"name":"HEALTHWAY MEDICAL","address":"02-03 Choa Chu Kang Avenue 3, Singapore 680221, Singapore","contact":"68926330","notes":"Mon - Fri: 08.30am to 01.00pm, 02.00pm to 05.00pm\nSat: 08.30am to 01.00pm","coordinates":{"long":103.744606,"lat":1.382377}},{"name":"HEALTHWAY MEDICAL","address":"727 Clementi West Street 2, Singapore 120727, Singapore","contact":"67745901","notes":"Mon, Tues & Thurs: 8:30am – 2:30pm, 6:00pm – 9:00pm Wed & Fri: 8:30am – 2:30pm\nSat, Sun & Public Holidays: 8:30am – 12:30pm","coordinates":{"long":103.763852,"lat":1.304383}},{"name":"HEALTHWAY MEDICAL","address":"3 Gateway Drive, Singapore 608532, Singapore","contact":"65606127","notes":"Mon – Fri: 9:00am – 1:00pm, 2:00pm – 5:00pm Sat: 9:00am – 1:00pm\nSun & Public Holiday: 11:00am – 3:00pm","coordinates":{"long":103.742763,"lat":1.334158}},{"name":"HEALTHWAY MEDICAL","address":"690 Jurong West Central 1, Singapore 640690, Singapore","contact":"67921812","notes":"Mon & Wed: 8:30am – 12:30pm, 2:00pm – 5:00pm, 6:00pm -\n9:00pm\nTues, Thurs & Fri: 8:30am – 12:30pm, 2:00pm – 5:00pm Sat: 8:30am – 12:30pm, 6:00pm – 9:00pm\nSun & Public Holidays: 8:30am – 12:30pm","coordinates":{"long":103.706696,"lat":1.341322}},{"name":"HEALTHWAY MEDICAL","address":"118 Rivervale Drive, Singapore 540118, Singapore","contact":"68812689","notes":"Mon – Fri: 8:00am - 5:00pm, 6:00pm - 10:00pm\nSat: 8:00am - 5:00pm, 6:00pm - 10:00pm\nSun & Public Holidays: 8:00am - 2:00pm, 6:00pm - 10:00pm","coordinates":{"long":103.901932,"lat":1.385498}},{"name":"Healthway Medical","address":"Blk 108 Hougang Ave 1, Singapore, North-East 530108, Singapore","contact":"62849692","notes":"Daily 8am - 9pm","coordinates":{"long":103.890351,"lat":1.352989}},{"name":"HEALTHWAY MEDICAL","address":"406 Sembawang Drive, Singapore 750406, Singapore","contact":"65556674","notes":"Mon – Fri: 8:30am – 1:00pm, 2:00pm – 4:30pm\nMon & Wed: 6:00pm – 9:00pm","coordinates":{"long":103.817013,"lat":1.453034}},{"name":"Healthway Medical","address":"503 Tampines Central 1, Singapore 520503, Singapore","contact":"67890383","notes":"Mon - Fri: 8:30am – 1:00pm, 2:00pm – 5:00pm, 6:00pm –\n9:00pm","coordinates":{"long":103.945168,"lat":1.355937}},{"name":"Healthway Medical","address":"177 Toa Payoh Central, Singapore 310177, Singapore","contact":"62553773","notes":"Mon – Fri: 8:30am – 3:00pm, 6:00pm – 9:00pm","coordinates":{"long":103.848657,"lat":1.333841}},{"name":"Healthway Medical","address":"01-05 Yishun Avenue 6, Singapore 761269, Singapore","contact":"62354824","notes":"Mon & Wed: 8:30am – 1:00pm, 2:00pm – 5:00pm, 6:00pm –\n9:00pm\nTues, Thur & Fri: 8:30am – 1:00pm, 2:00pm – 5:00pm","coordinates":{"long":103.841089,"lat":1.437435}},{"name":"HEALTHWAY MEDICAL","address":"201d Tampines Street 21, Singapore 524201, Singapore","contact":"62608801","notes":"Mon – Fri: 8:30am-1:00pm, 2:00pm-5.00pm, 6:00pm-9:00pm Sat: 8.30am – 1.00pm\nSun & Public Holiday: 8.30am – 1.00pm","coordinates":{"long":103.953339,"lat":1.352275}},{"name":"HEALTHWAY MEDICAL","address":"Sun Plaza, 30 Sembawang Dr, Singapore, North 757713, Singapore","contact":"65551445","notes":"Mon - Fri: 8:30am to 1:00pm, 2:00pm to 5:00pm, 6:00pm to\n9:00pm","coordinates":{"long":103.81975,"lat":1.448387}},{"name":"Healthwerkz Medical Centre","address":"355 Sembawang Way, Singapore 750355, Singapore","contact":"67557115","notes":"mon to fri : 0800 to 2100\nsat sun PH : 1000 to 1700","coordinates":{"long":103.818728,"lat":1.449547}},{"name":"HEALTHWERKZ MEDICAL CENTRE @ CCK","address":"225 Choa Chu Kang Central, Singapore 680225, Singapore","contact":"67662827","notes":"monday to friday 830am-1pm, 6pm 9pm\nsat 830am-12pm","coordinates":{"long":103.744987,"lat":1.381124}},{"name":"HEALTHWERKZ MEDICAL CENTRE @\nORCHARD","address":"9 Scotts Road, Singapore 228210, Singapore","contact":"67345987","notes":"monday to Fri 10am-6pm\nsat 10am-2pm","coordinates":{"long":103.832055,"lat":1.306661}},{"name":"Heartland Family Clinic","address":"333c Yishun Street 31, Singapore 763333, Singapore","contact":"62500655","notes":"Mon- Thurs: 8am to 1230pm, 2pm to 4pm Fri: 8am to 1230pm\nSat, Sun: 830am to 12noon","coordinates":{"long":103.845789,"lat":1.431891}},{"name":"HEARTLANDHEALTH","address":"730 Tampines Street 71, Singapore 520730, Singapore","contact":"88142803","notes":"Mon-Sun: 08.00 to 01.00pm & 06.00pm to 11.00pm","coordinates":{"long":103.933557,"lat":1.356701}},{"name":"HEARTLANDHEALTH","address":"Blk 114 Jurong East St 13, Singapore, West 600114, Singapore","contact":"88142803","notes":"Mon-Sat: 08.30am to 12.30pm\nSun & PH: Closed","coordinates":{"long":103.734457,"lat":1.339225}},{"name":"HEARTLANDHEALTH","address":"66 Lorong 4 Toa Payoh, Singapore 310066, Singapore","contact":"88142803","notes":"Mon-Sun: 08.00am to 01.00pm & 06.00pm to 11.00pm\nPH: As per above","coordinates":{"long":103.851773,"lat":1.335013}},{"name":"HEARTLANDHEALTH","address":"86 Redhill Close, Singapore 150086, Singapore","contact":"88142803","notes":"Mon-Sun: 08.00am to 01.00pm & 06.00pm to 11.00pm","coordinates":{"long":103.818674,"lat":1.28692}},{"name":"HEARTLANDHEALTH","address":"164 Bukit Batok Street 11, Singapore 650164, Singapore","contact":"88142803","notes":"Mon-Sun: 08.00am - 01.00pm & 06.00pm to 11.00pm","coordinates":{"long":103.742928,"lat":1.347818}},{"name":"HEARTLANDHEALTH","address":"88 Circuit Road, Singapore 370088, Singapore","contact":"88142803","notes":"Mon-Sun: 07.00am to 01.00pm & 06.00pm to 11.00pm","coordinates":{"long":103.88586,"lat":1.323541}},{"name":"HEARTLANDHEALTH","address":"463 Jurong West Street 41, Singapore 640463, Singapore","contact":"88142803","notes":"Mon-Sun: 08.00am to 01.00pm & 06.00pm to 11.00pm","coordinates":{"long":103.723305,"lat":1.350507}},{"name":"HEARTLANDHEALTH","address":"01-69 Bedok South Road, Singapore 460171, Singapore","contact":"88142803","notes":"Mon - Fri:  07.00am to 01.00pm & 06.00pm to 11.00pm\nSat, Sun: 07.00am to 01.00pm & 06.00pm to 11.00pm","coordinates":{"long":103.945283,"lat":1.32117}},{"name":"HEARTLANDHEALTH","address":"19 Lorong 7 Toa Payoh, Singapore 310019, Singapore","contact":"88142803","notes":"Mon - Fri:  07.00am to 01.00pm & 06.00pm to 11.00pm\nSat, Sun: 07.00am to 01.00pm & 06.00pm to 11.00pm","coordinates":{"long":103.856479,"lat":1.335329}},{"name":"HEARTLANDHEALTH","address":"59 New Upper Changi Road, Singapore 461059, Singapore","contact":"88142803","notes":"Mon-Fri: 07.00am to 11.00pm\nSat-Sun: 07.00am to 01.00pm  &  06.00pm to 11.00pm PH: As per above","coordinates":{"long":103.940645,"lat":1.324332}},{"name":"HEARTLANDHEALTH","address":"87 Whampoa Drive, Singapore 320087, Singapore","contact":"88142803","notes":"Mon - Fri: 07.00am to 11.00pm\nSat, Sun: 07.00am to 01.00pm & 06.00pm to 11.00pm","coordinates":{"long":103.855729,"lat":1.32329}},{"name":"HELIX AESTHETICS AND MEDICAL CLINIC","address":"160 Robinson Road, Singapore 068914, Singapore","contact":"88119131","notes":"Mon, Tue, Fri: 11AM - 7PM Sat: 9AM - 2PM\n(by appointment only)","coordinates":{"long":103.847855,"lat":1.278128}},{"name":"Hill Spring Medical","address":"12 Jalan Leban, Singapore 577552, Singapore","contact":"64563200","notes":"8.30am- 4pm, 6pm- 9.30pm","coordinates":{"long":103.829176,"lat":1.371547}},{"name":"Hisemainn Medical Clinic (Bukit Batok)","address":"289e Bukit Batok Street 25, Singapore 654289, Singapore","contact":"65691375","notes":"Mon to Fri: 9am to 2pm\nMon / Wed / Thur: 630pm to 830pm Sat: 9am to 1pm\nTues & PH: Closed","coordinates":{"long":103.759214,"lat":1.344109}},{"name":"Hisemainn Medical Clinic (Jurong West)","address":"276 Jurong West Street 25, Singapore 643276, Singapore","contact":"67958990","notes":"Mon to Fri: 830am to 330pm Mon to Thur: 630pm to 930pm Sat & Sun: 830am to 1230pm\nPH: Closed","coordinates":{"long":103.704468,"lat":1.353179}},{"name":"HK FAMILY CLINIC & SURGERY PTE LTD","address":"410 Ang Mo Kio Avenue 10, Singapore 560410, Singapore","contact":"65528757","notes":"Monday to Thursday : 08:30 am to 02:00 pm, 06:00 pm to 08:00 pm\nFriday and Saturday : 08:30 am to 02:00 pm","coordinates":{"long":103.854714,"lat":1.362793}},{"name":"HL CLINIC PTE LTD","address":"9 Telok Blangah Crescent, Singapore 090009, Singapore","contact":"62721986","notes":"Public Holiday : 08:30 am to 02:00 pm\nMonday to Thursday : 08:30 am to 02:30 pm, 06:00 pm to 08:30 pm\nFriday to Sunday : 08:30 am to 02:30 pm","coordinates":{"long":103.819409,"lat":1.277409}},{"name":"HL FAMILY CLINIC & SURGERY PTE LTD","address":"111 Jalan Bukit Merah, Singapore 160111, Singapore","contact":"62785966","notes":"Monday to Saturday : 8.30 am to 10.30 am","coordinates":{"long":103.82635,"lat":1.280098}},{"name":"HL FAMILY CLINIC & SURGERY(BEDOK) PTE LTD","address":"89 Bedok North Street 4, Singapore 460089, Singapore","contact":"64420494","notes":"Public Holiday : 08:30 am to 12:00 pm\nMonday to Friday : 08:30 am to 02:30 pm, 06:00 pm to 09:30 pm\nSaturday to Sunday : 08:30 am to 02:30 pm","coordinates":{"long":103.938151,"lat":1.332633}},{"name":"HO MEDICAL CENTRE PTE LTD","address":"352 Clementi Avenue 2, Singapore 120352, Singapore","contact":"64748923","notes":"Mon - Sat: 08.30am - 12.30 pm\nMonday, Tuesday and Thursday  03.00pm - 04.30 pm Sunday and PH - Closed","coordinates":{"long":103.771385,"lat":1.314661}},{"name":"HO MEDICAL CLINIC","address":"Singapore","contact":"65358678","notes":"Public Holiday :  Closed\nMonday to Friday : 09:00 am to 12:30 pm, 01:30 pm to 05:00 pm\nSaturday : 09:00 am to 12:30 pm\nSunday :  Closed","coordinates":{"long":103.808052586332,"lat":1.3516161224392}},{"name":"Holistic Care Family Clinic","address":"West, Singapore","contact":"65134757","notes":"Monday and Thursday : 09:00 am to 01:00 pm, 02:30 pm to 04:30 pm, 06:30 pm to 08:30 pm\nTuesday and Wednesday : 09:00 am to 01:00 pm, 02:30 pm to 04:30 pm\nFriday and Saturday : 09:00 am to 01:00 pm\nSunday and Public Holiday :  Closed","coordinates":{"long":103.709375,"lat":1.315042}},{"name":"HORIZON MEDICAL CENTRE","address":"01-11 Upper Thomson Road, Singapore 574416, Singapore","contact":"62502692","notes":"Mon - Fri: Before 10am or 4pm\nSat - Sun: Before 10am","coordinates":{"long":103.828143,"lat":1.370697}},{"name":"HOUGANG FAMILY MEDICINE CLINIC","address":"Hougang Avenue 9, Singapore 530924, Singapore","contact":"63153323","notes":"Mon to Fri : 8.30am to 5.30pm Thursday : 8.30am to 7.00pm Saturday : 8.30am to 5.30pm\nClosed on Sundays and Public Holidays","coordinates":{"long":103.8821285,"lat":1.3763035}},{"name":"Huang Surgery Private Limited","address":"River Valley, Ontario, Canada","contact":"68362348","notes":"9-13:00 mon to sat\n14:30-17:00 mon to fri","coordinates":{"long":-80.180512,"lat":46.586484}},{"name":"Hui Clinic & Surgery","address":"157 Ang Mo Kio Avenue 4, Singapore 560157, Singapore","contact":"64588596","notes":"Monday to Friday: 11.00am to 12.00pm, 3.00pm to 4.00pm Saturday: 11.00am to 12.00pm\nMust call clinic for appointment first","coordinates":{"long":103.839386,"lat":1.375174}},{"name":"I Medical & Aesthetics Pte Ltd","address":"1 Northpoint Drive, Houston, Texas 77060, United States","contact":"62541622","notes":"Mon to Sat 0830-1330\nMon Wed and Friday 1700-2000\nSunday 0900-1200","coordinates":{"long":-95.412238,"lat":29.937971}},{"name":"ICARE MEDICAL AND WELLNESS CLINIC","address":"22 Havelock Road, Singapore 160022, Singapore","contact":"62746858","notes":"Mon - Fri: 08.00am to 10.00pm\nSat - Sun: 10.00am to 10.00pm","coordinates":{"long":103.828831,"lat":1.288731}},{"name":"ICON MEDICAL CLINIC","address":"517 Jurong West Street 52, Singapore 640517, Singapore","contact":"65600521","notes":"WEEKDAYS 830AM TO 130PM , 6 PM TO 9 PM WEEKENDS 830AM TO 12 PM\nPH CLOSE\nFOR PREDEPARTURE SWAB PLEASE CALL FOR APPOINTMENT","coordinates":{"long":103.719543,"lat":1.345651}},{"name":"ID Consult: Specialist Clinic for Infectious\nDiseases & Travel Health","address":"Mount Elizabeth Medical Centre, 3 Mount Elizabeth, Singapore, Central 228979, Singapore","contact":"67351286","notes":"Monday to Friday: 0900 - 1300; 1400 -1700\nSaturday: 0900 - 1230","coordinates":{"long":103.83529999999999,"lat":1.3044475}},{"name":"IDOC CLINIC","address":"21 Hougang Street 51, Singapore 538719, Singapore","contact":"69093485","notes":"Mon - Fri: 8.30am to 5.30pm Sat, Sun: 8.30am to 2pm\nHours subject to changes, please call clinic for appt.","coordinates":{"long":103.887832,"lat":1.379245}},{"name":"IDOC CLINIC (HONG KAH) PTE LTD","address":"502 Jurong West Avenue 1, Singapore 640502, Singapore","contact":"69099516","notes":"Mon-Fri: 830am-1230pm, 130pm - 630pm, 730-930pm. Sat: 830am - 2pm\nSun: 630 pm - 930pm","coordinates":{"long":103.718189,"lat":1.350389}},{"name":"INFECTIOUS DISEASE SPECIALISTS","address":"Centre-Sud, Montréal, Quebec, Canada","contact":"67326388","notes":"Monday to Friday: 0900hr - 1230hr, 1400hr - 1630hr\nSaturday: 0900hr - 1230hr","coordinates":{"long":-73.56,"lat":45.52}},{"name":"Integrated Wellness Pte Ltd","address":"Novena Specialist Centre, 8 Sinran Dr., Singapore, Central 307470, Singapore","contact":"63390665","notes":"8.30am - 5pm (Mon - Fri)\n8.30am - 12.30pm (Sat)","coordinates":{"long":103.84475,"lat":1.319987}},{"name":"INTEMEDICAL (KOVAN)","address":"210 Hougang Street 21, Singapore 530211, Singapore","contact":"62433036","notes":"8am to 12 midnight without breaks daily, including weekends\nand public holidays","coordinates":{"long":103.887185,"lat":1.359122}},{"name":"INTEMEDICAL 24 HOUR CLINIC","address":"525 Ang Mo Kio Avenue 10, Singapore 560525, Singapore","contact":"69192998","notes":"24 hours, everyday, including weekends and public holidays.","coordinates":{"long":103.853959,"lat":1.372677}},{"name":"INTEMEDICAL POTONG PASIR","address":"51 Upper Serangoon Road, Singapore 357768, Singapore","contact":"62426384","notes":"8am to 12 midnight daily, including Sundays and public holidays","coordinates":{"long":103.868541,"lat":1.32918}},{"name":"INTERNATIONAL MEDICAL CLINIC","address":"Singapore","contact":"67334440","notes":"Public Holiday :  Closed\nMonday to Friday : 08:00 am to 07:00 pm Saturday : 09:00 am to 01:00 pm\nSunday :  Closed","coordinates":{"long":103.808052586332,"lat":1.3516161224392}},{"name":"INTERNATIONAL MEDICAL CLINIC","address":"293 Holland Road, Singapore 278628, Singapore","contact":"64654440","notes":"Public Holiday :  Closed\nMonday and Thursday : 09:00 am to 07:00 pm Friday : 09:00 am to 05:30 pm\nSaturday : 09:00 am to 01:00 pm\nSunday :  Closed","coordinates":{"long":103.785851,"lat":1.317546}},{"name":"INTERNATIONAL MEDICAL CLINIC","address":"02-07 East Coast Road, Singapore 428910, Singapore","contact":"63424440","notes":"Mon to Fri: 9AM - 5:30PM Sat: 9AM - 1PM\n(by appointment only)","coordinates":{"long":103.9068,"lat":1.307258}},{"name":"ISLAND FAMILY CLINIC (ANCHORVALE)","address":"Block 338 Anchorvale Crescent, Blk 338 Anchorvale Crescent, Singapore, Central 540338, Singapore","contact":"62810174","notes":"Monday to friday : 9am-1pm, 2pm-4pm, 6pm-10pm Saturday : 9am-1pm\nSunday and PH - closed","coordinates":{"long":103.8895,"lat":1.399053}},{"name":"ISLAND FAMILY CLINIC (BEDOK)","address":"763 Bedok Reservoir View, Singapore 470763, Singapore","contact":"62435871","notes":"Monday, Friday : 8.30 am to 12.30pm and 6pm to 10.30pm Tues, Wed, Thu, Sat : 8.30 am to 12.30pm and 6pm to 9.30pm Sun : 8.30 am to 12.30pm and 6pm to 9.00pm\nPH (certain only) : 8.30 am to 12.30pm","coordinates":{"long":103.934925,"lat":1.336151}},{"name":"ISLAND FAMILY CLINIC (BUKIT BATOK)","address":"Bukit Batok West Avenue 9, Singapore 657993, Singapore","contact":"62501530","notes":"Monday to Friday 9am-12.30pm and 6pm-9.30pm\nSat and Sunday 9am-12.30pm","coordinates":{"long":103.7419379,"lat":1.354744}},{"name":"ISLAND FAMILY CLINIC (FERNVALE)","address":"473a Fernvale Street, Singapore 791473, Singapore","contact":"64813740","notes":"MONDAY - SUNDAY : 9AM - 1PM\nMONDAY - THURSDAY : 6PM - 10PM","coordinates":{"long":103.881036,"lat":1.397825}},{"name":"ISLAND FAMILY CLINIC (SELETAR)","address":"455 Sengkang West Avenue, Singapore 791417, Singapore","contact":"69088280","notes":"Monday - Friday: 9am - 1pm, 6pm - 10pm\nSaturday - Sunday: 9am - 1pm","coordinates":{"long":103.881157,"lat":1.391989}},{"name":"Island Family Clinic (Sengkang)","address":"Blk 279 Sengkang East Avenue, 279 Sengkang East Avenue, Singapore, North-East 540279, Singapore","contact":"63842759","notes":"Monday to Friday 9am-1pm, 6-10pm\nSat and Sunday: 9am-1pm","coordinates":{"long":103.89329,"lat":1.386185}},{"name":"ISLAND GROUP CLINIC","address":"Singapore","contact":"67377729","notes":"Monday - Friday (9am - 1pm and 2pm - 5pm) Saturday (9am - 1230pm)\nSunday & PH : Closed","coordinates":{"long":103.808052586332,"lat":1.3516161224392}},{"name":"JAPAN GREEN CLINIC","address":"Singapore","contact":"67348871","notes":"MON-FRI 0900-1200/1400-1730 SAT 0900-1200\n(BY APPOINTMENT)\n*Pre-departure test only.\n*Swab tests not available on Saturdays, Sundays, public holidays\nand the day before public holidays.","coordinates":{"long":103.808052586332,"lat":1.3516161224392}},{"name":"JAS MEDICAL SCREENING CENTRE","address":"67 Lorong 27 Geylang, Singapore 388189, Singapore","contact":"67416700","notes":"8.30am - 5.30pm","coordinates":{"long":103.883724,"lat":1.316127}},{"name":"Joy Family Clinic","address":"703 Bedok Reservoir Road, Singapore 470703, Singapore","contact":"64422483","notes":"Mon to Fri 9am to 1pm, Saturday 9am to 12 noon, Closed on\nSunday and Public Holidays","coordinates":{"long":103.919892,"lat":1.337148}},{"name":"Jurong Day & Night Clinic","address":"966 Jurong West Street 93, Singapore 640966, Singapore","contact":"67922257","notes":"0900-1230, 1830-2100 hrs on Mon-Fri\n1830-2100 hrs on Sun, PHs","coordinates":{"long":103.692925,"lat":1.341728}},{"name":"K N CHIN & ASSOCIATES PTE LTD","address":"24 Raffles Place, Singapore 048621, Singapore","contact":"65389533","notes":"Monday to Friday : 8.30am to 3.00pm","coordinates":{"long":103.85213,"lat":1.283856}},{"name":"K N CHIN & ASSOCIATES PTE LTD\nMedical Practice","address":"3 Temasek Boulevard, Singapore 038986, Singapore","contact":"63372522","notes":"MONDAY TO FRIDAY 8.30AM TO 5.30PM\nSATURDAY 8.30AM TO 12.30PM","coordinates":{"long":103.859633,"lat":1.29468}},{"name":"K2 MEDICAL CLINIC","address":"Blk 248 @ Simei Street 3, Blk 248, Simei Street 3, Singapore, South East 520120, Singapore","contact":"65881322","notes":"Mon to Fri: 8:30AM - 4PM Mon, Wed, Fri: 6PM - 8:30PM\nSat and Sun: 9AM - 11:30AM","coordinates":{"long":103.953529,"lat":1.345108}},{"name":"KALLANG BAHRU FAMILY CLINIC","address":"66 Kallang Bahru, Singapore 330066, Singapore","contact":"62950010","notes":"830-230PM ; 6-9PM MON-FRI ; 830-230PM SAT, SUN, PH","coordinates":{"long":103.869711,"lat":1.320794}},{"name":"KAO & TAN FAMILY MEDICAL CENTRE & SURGERY","address":"18 Jalan Membina, Singapore 164018, Singapore","contact":"62727880","notes":"Mon - Fri: 07.00 am to 11.00 pm Sat: 07.00 am to 11.00 pm\nSun: 09.00 am to 11.00 pm\nPlease call for appointment","coordinates":{"long":103.826814,"lat":1.285608}},{"name":"KBL Healthcare Pte Ltd","address":"018972, Singapore, Central, Singapore","contact":"66887018","notes":"Mon-Fri, 08:30 – 16:00","coordinates":{"long":103.858754,"lat":1.283689}},{"name":"KCS MEDICAL CENTRE PTE LTD","address":"515 Bedok North Avenue 2, Singapore 460515, Singapore","contact":"64438322","notes":"MON - FRI 8.30AM-2PM, 7PM-9PM\nSAT 8.30AM - 12.30PM","coordinates":{"long":103.929954,"lat":1.331861}},{"name":"KEAT HONG FAMILY MEDICINE CLINIC","address":"Keat Hong Community Club, 2 Choa Chu Kang Loop, Singapore, West 689687, Singapore","contact":"67690750","notes":"Mon and Thu: 8AM - 7PM Tue, Wed, Fri: 8AM - 5PM Sat: 8AM - 12PM\nLunch hours: 12:30PM - 2PM","coordinates":{"long":103.744887,"lat":1.384373}},{"name":"Kenneth Loo Family Clinic","address":"152 Bishan Street 11, Singapore 570152, Singapore","contact":"62503660","notes":"Mon-Fri: 8:30am-12:15pm, 2:30pm-4:15pm\nSat&Sun: 9am-11:45am","coordinates":{"long":103.85465,"lat":1.345586}},{"name":"Kenneth Tan Medical Clinic","address":"01-04 Punggol East, Singapore 821653, Singapore","contact":"63124589","notes":"Monday-Tuesday 0830-1700, 1800-2100, Wednesday-Friday\n0830-1700 and Saturday-Sunday 0830-1300.","coordinates":{"long":103.918707,"lat":1.39793}},{"name":"KENSINGTON FAMILY CLINIC","address":"14d Kensington Park Road, Singapore 557265, Singapore","contact":"62884882","notes":"Monday Wednesday Friday - 8:30AM - 3:00PM, 6:00PM - 9:30PM\nTuesday Thursday Saturday - 8:30AM - 3:00PM","coordinates":{"long":103.866119,"lat":1.36533}},{"name":"Kent Ridge Clinic","address":"1 Lower Kent Ridge Road, Singapore 118177, Singapore","contact":"69110565","notes":"Monday to Friday : 08:30 am to 01:00 pm, 02:00 pm to 05:30 pm Saturday : 08:30 am to 01:00 pm\nSunday and Public Holiday : Closed","coordinates":{"long":103.784431,"lat":1.293341}},{"name":"KI MEDICAL CLINIC","address":"416 Ang Mo Kio Avenue 10, Singapore 560416, Singapore","contact":"64554475","notes":"Mon - Thurs: 8am to 12.30pm, 2.30 to 4.30pm, 6 to 9pm Fri: 8am to 12.30pm, 6 to 9pm\nWeekends: 8am to 12pm, 6 to 8.30pm","coordinates":{"long":103.855091,"lat":1.364562}},{"name":"Killiney Medical Clinic","address":"61 Killiney Road, Singapore 239522, Singapore","contact":"67362998","notes":"Monday - Fri - 0900-1300,1400-1800 Sat - 0900-1300\nSun/PH - Closed","coordinates":{"long":103.83955,"lat":1.298921}},{"name":"Kindred Family Clinic (Tampines)","address":"494 Tampines Street 45, Singapore 521487, Singapore","contact":"62327893","notes":"Monday to Tuesday : 08:30 am to 01:00 pm, 02:00 pm to 05:00\npm, 06:00 pm to 09:00 pm\nWednesday : 08:30 am to 01:00 pm, 02:00 pm to 05:00 pm\nThursday to Friday : 08:30 am to 01:00 pm, 02:00 pm to 05:00\npm, 06:00 pm to 09:00 pm Saturday : 08:30 am to 01:00 pm Sunday and Public Holiday : Closed","coordinates":{"long":103.958737,"lat":1.360308}},{"name":"King George’s Medical Clinic Pte Ltd","address":"803 King George's Avenue, Singapore 200803, Singapore","contact":"62939883","notes":"Monday 830am to 1230pm\nTuesday and Wednesday 830am to 1230pm,2 to 430 pm Friday and Saturday 830am to 1230 pm","coordinates":{"long":103.86092,"lat":1.308402}},{"name":"KINGS MEDICAL CLINIC","address":"59a Serangoon Garden Way, Singapore 555955, Singapore","contact":"62844498","notes":"Mon - fri 9:00am to 9:00pm\nSat -sun 9:00am to 1:00pm","coordinates":{"long":103.865614,"lat":1.363362}},{"name":"KINGSTON MEDICAL CLINIC PTE LTD","address":"155 Upper Paya Lebar Road, Singapore 534853, Singapore","contact":"88910283","notes":"Monday to Fridays 8am - 7 pm Sat 8am -3pm\nSundays Off","coordinates":{"long":103.885703,"lat":1.339393}},{"name":"KINGSWAY MEDICAL CLINIC","address":"352 Clementi Avenue 2, Singapore 120352, Singapore","contact":"69241055","notes":"MONDAY - SATURDAY: 7AM -11PM\nSUNDAY: 7AM - 11PM (BY APPOINTMENT ONLY)","coordinates":{"long":103.771385,"lat":1.314661}},{"name":"LAVENDER MEDICAL CLINIC & SURGERY\nPTE LTD","address":"803 King George's Avenue, Singapore 200803, Singapore","contact":"62916631","notes":"Mondays to Fridays 0845Hrs to 16:30 Hrs\nSaturdays 0845Hrs to 1200Hrs","coordinates":{"long":103.86092,"lat":1.308402}},{"name":"LC CLINIC MEDICAL SURGERY AESTHETICS","address":"446 Clementi Avenue 3, Singapore 120446, Singapore","contact":"64640932","notes":"KINDLY MAKE APPOINTMENT:\nMON, TUE, THU, FRI - 8.30 AM TO 8 PM WED, SAT - 8.30 AM TO 6 PM\nSUN - 11 AM TO 6 PM","coordinates":{"long":103.764928,"lat":1.312513}},{"name":"Lee Clinic","address":"123 Bedok North Street 2, Singapore 460123, Singapore","contact":"62418827","notes":"Mon - Sat: 09:00am - 12:30pm\nMon, Tues, Thurs, Fri: 2:30pm - 4:30pm Sunday and Public Holiday: Closed","coordinates":{"long":103.937347,"lat":1.329195}},{"name":"LEE FAMILY CLINIC PTE. LTD.","address":"762 Jurong West Street 75, Singapore 640762, Singapore","contact":"67940217","notes":"MON- THU: 08.00AM TO 04.00PM","coordinates":{"long":103.697612,"lat":1.348885}},{"name":"LEONG CLINIC","address":"63b Lengkok Bahru, Singapore 152063, Singapore","contact":"64760572","notes":"MONDAY TO THURSDAY 9.00AM TO 12.30PM, 2.00PM TO 4.30PM\nFRIDAY AND SATURDAY 9.00AM TO 12.30PM\nSUNDAY AND PUBLIC HOLIDAYS CLOSED","coordinates":{"long":103.815429,"lat":1.289227}},{"name":"LIAN CLINIC","address":"18 Marsiling Lane, Singapore 730018, Singapore","contact":"62697435","notes":"MON TO FRI - 830AM-1230PM; 130PM-430PM, 7-9PM\nSAT / SUN / PH - 830AM-12PM","coordinates":{"long":103.777857,"lat":1.443416}},{"name":"LIFE FAMILY CLINIC (AMK)","address":"Blk 713 Ang Mo Kio Avenue 6, 713 Ang Mo Kio Ave. 6, Singapore, Central 560713, Singapore","contact":"64563535","notes":"Monday to Friday 8:30 AM to 9:00 PM Saturday and Sunday : 8:30 AM to 1:00 PM\nPublic Holiday Closed","coordinates":{"long":103.846481,"lat":1.371457}},