[{"name":"1 Bishan Medical Clinic","address":"283 Bishan Street 22, Singapore 570283, Singapore","contact":"64561600","notes":"8am to 2pm, 6pm to 11pm Daily","coordinates":{"long":103.844634,"lat":1.358938}},{"name":"1 MEDICAL TECK GHEE","address":"410 Ang Mo Kio Avenue 10, Singapore 560410, Singapore","contact":"93552188","notes":"Mon-Sunday 7am-1pm\nMon-Sunday 6pm-11pm","coordinates":{"long":103.854714,"lat":1.362793}},{"name":"338 FAMILY CLINIC","address":"338 Ang Mo Kio Avenue 1, Singapore 560338, Singapore","contact":"64549408","notes":"Mon - Thurs: 10am - 1pm\nSat: 10am - 12pm","coordinates":{"long":103.848728,"lat":1.363897}},{"name":"57 MEDICAL CLINIC (GEYLANG BAHRU)","address":"57 Geylang Bahru, Singapore 330057, Singapore","contact":"66947078","notes":"Mon, Wed, Thur: 08.00am to 01.00pm, 06.00pm to 09.00pm Tue: 08.00am to 01.00pm\nSat: 08.00am to 01.00pm\nSun: 09.00am to 12.00pm","coordinates":{"long":103.869135,"lat":1.323347}},{"name":"57 Medical Clinic (Yishun)","address":"618 Yishun Ring Road, Singapore 760618, Singapore","contact":"62353490","notes":"Monday, Wednesday and Thursday : 06:00 pm to 09:00 pm Monday to Saturday : 08:00 am to 01:00 pm\nFriday : 06:00 pm to 09:00 pm\nSunday : 09:00 am to 12:00 pm","coordinates":{"long":103.835689,"lat":1.418771}},{"name":"81 Family Clinic","address":"86 Marine Parade Central, Singapore 440086, Singapore","contact":"63466768","notes":"9am-9pm","coordinates":{"long":103.906741,"lat":1.30173}},{"name":"888 PLAZA FAMILY CLINIC","address":"888 Woodlands Drive 50, Singapore 730888, Singapore","contact":"63688762","notes":"Kindly make appointment with clinic.\nWeekdays 2-4pm","coordinates":{"long":103.795309,"lat":1.437797}},{"name":"A HEALING HEART MEDICAL CLINIC","address":"134 Geylang East Avenue 1, Singapore 380134, Singapore","contact":"69621362","notes":"Mon to Fri:9am to 1230pm and 2pm to 6pm Sat: 9am to 1pm.\nSun and Public Holidays: Closed.","coordinates":{"long":103.886009,"lat":1.315991}},{"name":"A Jaga-Me Medical Clinic","address":"71 Ayer Rajah Crescent, 71 Ayer Rajah Crescent, Singapore, West 139951, Singapore","contact":"67173737","notes":"Mon – Fri: 8am to 5.30pm\nSat – Sun: 8am to 12.30pm","coordinates":{"long":103.787286,"lat":1.296743}},{"name":"A Life Clinic Pte Ltd","address":"Novena Medical Centre, 10 Sinaran Dr, Singapore, Central 307642, Singapore","contact":"67372283","notes":"Monday to Friday 9am to 12.30pm, 2pm to 4.30pm","coordinates":{"long":103.84413,"lat":1.320718}}]